<?xml version="1.0" encoding="UTF-8"?><markers>
<marker id="1334579205" label="Door" category="100" did="1879227952" parentZoneId="1879464792" longitude="54.976406" latitude="-21.624092"/>
<marker id="1334579209" label="Jajax" category="70" did="1879460937" parentZoneId="1879464792" longitude="54.976875" latitude="-21.214384"/>
<marker id="1334579212" label="Captain Maeral" category="70" did="1879460927" parentZoneId="1879464792" longitude="54.98291" latitude="-21.215517"/>
<marker id="1334579213" label="Jajax" category="70" did="1879460925" parentZoneId="1879464792" longitude="54.977264" latitude="-21.206972"/>
<marker id="1334579214" label="Prince Imrahil" category="70" did="1879460480" parentZoneId="1879464792" longitude="54.97785" latitude="-21.185791"/>
<marker id="1334579215" label="King Elessar" category="70" did="1879460950" parentZoneId="1879464792" longitude="54.977364" latitude="-21.229258"/>
<marker id="1334611969" label="Currency Exchange" category="58" did="1879313747" parentZoneId="1879464796" longitude="54.824745" latitude="-14.797168"/>
<marker id="1334611970" label="Cosmetics" category="58" did="1879313756" parentZoneId="1879464796" longitude="54.730408" latitude="-14.811835"/>
<marker id="1334611971" label="Crafting" category="58" did="1879313763" parentZoneId="1879464796" longitude="54.76117" latitude="-14.800722"/>
<marker id="1334611972" label="Curiosities" category="58" did="1879313751" parentZoneId="1879464796" longitude="54.72955" latitude="-14.8004875"/>
<marker id="1334611973" label="Provisioner" category="58" did="1879313744" parentZoneId="1879464796" longitude="54.75367" latitude="-14.821318"/>
<marker id="1334611974" label="Heavy Armour" category="58" did="1879313742" parentZoneId="1879464796" longitude="54.8515" latitude="-14.7498045"/>
<marker id="1334611976" label="Light Armour" category="58" did="1879313755" parentZoneId="1879464796" longitude="54.85697" latitude="-14.733525"/>
<marker id="1334611977" label="Medium Armour" category="58" did="1879313762" parentZoneId="1879464796" longitude="54.865723" latitude="-14.74747"/>
<marker id="1334611978" label="Weapons" category="58" did="1879313753" parentZoneId="1879464796" longitude="54.8557" latitude="-14.7774315"/>
<marker id="1334611979" label="Skirmish Captain&#10;Orma" category="58" did="1879313739" parentZoneId="1879464796" longitude="54.770233" latitude="-14.772206"/>
<marker id="1334611980" label="Skirmish Trainer" category="58" did="1879313738" parentZoneId="1879464796" longitude="54.788475" latitude="-14.773749"/>
<marker id="1334611981" label="Door" category="100" did="1879227953" parentZoneId="1879464796" longitude="54.854824" latitude="-14.607431"/>
<marker id="1334611982" label="Jewellery and Cloaks" category="58" did="1879313740" parentZoneId="1879464796" longitude="54.880234" latitude="-14.777676"/>
<marker id="1334611983" label="Classic" category="58" did="1879313741" parentZoneId="1879464796" longitude="54.796833" latitude="-14.805614"/>
<marker id="1334620160" label="Study" category="45" did="1879314747" parentZoneId="1879464797" longitude="54.733143" latitude="-13.204307"/>
<marker id="1334620161" label="Study" category="45" did="1879314747" parentZoneId="1879464797" longitude="54.733143" latitude="-13.088554"/>
<marker id="1334620162" label="Improved Recipes&#10;Woodworker's Guild" category="33" did="1879313731" parentZoneId="1879464797" longitude="54.81455" latitude="-13.316484"/>
<marker id="1334620163" label="Guild Leader&#10;Woodworker's Guild" category="58" did="1879313724" parentZoneId="1879464797" longitude="54.819355" latitude="-13.310752"/>
<marker id="1334620164" label="Legendary Recipes&#10;Woodworker's Guild" category="33" did="1879313730" parentZoneId="1879464797" longitude="54.822205" latitude="-13.31831"/>
<marker id="1334620165" label="Improved Recipes&#10;Weaponsmith's Guild" category="33" did="1879313726" parentZoneId="1879464797" longitude="54.703728" latitude="-12.987676"/>
<marker id="1334620166" label="Guild Leader&#10;Weaponsmith's Guild" category="58" did="1879313718" parentZoneId="1879464797" longitude="54.698223" latitude="-12.980449"/>
<marker id="1334620167" label="Legendary Recipes&#10;Weaponsmith's Guild" category="33" did="1879313721" parentZoneId="1879464797" longitude="54.71662" latitude="-12.984345"/>
<marker id="1334620168" label="Improved Recipes&#10;Tailor's Guild" category="33" did="1879313725" parentZoneId="1879464797" longitude="54.828613" latitude="-12.984648"/>
<marker id="1334620169" label="Guild Leader&#10;Tailor's Guild" category="58" did="1879313712" parentZoneId="1879464797" longitude="54.83408" latitude="-12.978408"/>
<marker id="1334620170" label="Legendary Recipes&#10;Tailor's Guild" category="33" did="1879313719" parentZoneId="1879464797" longitude="54.83947" latitude="-12.984648"/>
<marker id="1334620171" label="Improved Recipes&#10;Scholar's Guild" category="33" did="1879313715" parentZoneId="1879464797" longitude="54.944004" latitude="-13.161133"/>
<marker id="1334620172" label="Guild Leader&#10;Scholar's Guild" category="58" did="1879313728" parentZoneId="1879464797" longitude="54.944824" latitude="-13.152734"/>
<marker id="1334620173" label="Legendary Recipes&#10;Scholar's Guild" category="33" did="1879313713" parentZoneId="1879464797" longitude="54.95238" latitude="-13.157929"/>
<marker id="1334620174" label="Improved Recipes&#10;Metalsmith's Guild" category="33" did="1879313722" parentZoneId="1879464797" longitude="54.594666" latitude="-12.985186"/>
<marker id="1334620175" label="Guild Leader&#10;Metalsmith's Guild" category="58" did="1879313723" parentZoneId="1879464797" longitude="54.61861" latitude="-12.981884"/>
<marker id="1334620176" label="Legendary Recipes&#10;Metalsmith's Guild" category="33" did="1879313716" parentZoneId="1879464797" longitude="54.61113" latitude="-12.977197"/>
<marker id="1334620177" label="Improved Recipes&#10;Jeweller's Guild" category="33" did="1879313732" parentZoneId="1879464797" longitude="54.61672" latitude="-13.319023"/>
<marker id="1334620178" label="Guild Leader&#10;Jeweller's Guild" category="58" did="1879313729" parentZoneId="1879464797" longitude="54.613846" latitude="-13.308887"/>
<marker id="1334620179" label="Legendary Recipes&#10;Jeweller's Guild" category="33" did="1879313727" parentZoneId="1879464797" longitude="54.623104" latitude="-13.321074"/>
<marker id="1334620180" label="Improved Recipes&#10;Cook's Guild" category="33" did="1879313714" parentZoneId="1879464797" longitude="54.715134" latitude="-13.30875"/>
<marker id="1334620181" label="Guild Leader&#10;Cook's Guild" category="58" did="1879313717" parentZoneId="1879464797" longitude="54.728985" latitude="-13.305351"/>
<marker id="1334620182" label="Legendary Recipes&#10;Cook's Guild" category="33" did="1879313720" parentZoneId="1879464797" longitude="54.723984" latitude="-13.31245"/>
<marker id="1334620183" label="Door" category="100" did="1879157895" parentZoneId="1879464797" longitude="54.387207" latitude="-13.145722"/>
<marker id="1334620186" label="" category="70" did="1879313180" parentZoneId="1879464797" longitude="54.71791" latitude="-12.920644"/>
<marker id="1334620187" label="" category="70" did="1879313180" parentZoneId="1879464797" longitude="54.712265" latitude="-13.365801"/>
<marker id="1334620188" label="" category="70" did="1879313180" parentZoneId="1879464797" longitude="54.83035" latitude="-13.147158"/>
<marker id="1334620189" label="" category="70" did="1879313180" parentZoneId="1879464797" longitude="54.733047" latitude="-12.82538"/>
<marker id="1334620190" label="" category="70" did="1879313195" parentZoneId="1879464797" longitude="54.679646" latitude="-12.934716"/>
<marker id="1334620191" label="" category="70" did="1879313195" parentZoneId="1879464797" longitude="54.754044" latitude="-13.361279"/>
<marker id="1334620192" label="" category="70" did="1879313195" parentZoneId="1879464797" longitude="54.733418" latitude="-13.156543"/>
<marker id="1334620193" label="" category="70" did="1879313195" parentZoneId="1879464797" longitude="54.673573" latitude="-13.253398"/>
</markers>
