<?xml version="1.0" encoding="UTF-8"?><markers>
<marker id="1352519680" label="Maj Khibi" category="43" did="1879469836" parentZoneId="1879470529" longitude="-135.81029" latitude="1.7037207"/>
<marker id="1352577024" label="Kafagur" category="43" did="1879469830" parentZoneId="1879470529" longitude="-134.90837" latitude="0.39730468"/>
<marker id="1352577025" label="Healer" category="38" did="1879475533" parentZoneId="1879470529" longitude="-135.05367" latitude="0.11455078"/>
<marker id="1352577026" label="Provisioner" category="38" did="1879475534" parentZoneId="1879470529" longitude="-135.1314" latitude="0.33081055"/>
<marker id="1352577027" label="Supplier" category="38" did="1879475535" parentZoneId="1879470529" longitude="-135.15912" latitude="0.29163086"/>
<marker id="1352581120" label="Mailbox" category="34" did="1879063655" parentZoneId="1879470529" longitude="-134.88737" latitude="0.400625"/>
<marker id="1352593408" label="Ghax-hophra" category="43" did="1879469838" parentZoneId="1879470529" longitude="-135.57043" latitude="3.51458"/>
<marker id="1352638464" label="Dor Pherkha" category="43" did="1879469832" parentZoneId="1879470529" longitude="-134.51114" latitude="-0.727041"/>
<marker id="1352646656" label="Milestone" category="55" did="1879475454" parentZoneId="1879470529" longitude="-134.73592" latitude="0.50923824"/>
<marker id="1352646657" label="Tasks" category="27" did="1879475223" parentZoneId="1879470529" longitude="-134.73788" latitude="0.4421777"/>
</markers>
