<?xml version="1.0" encoding="UTF-8"?><markers>
<marker id="1609117696" label="Door" category="100" did="1879497037" parentZoneId="1879513801" longitude="50.250095" latitude="56.92875"/>
<marker id="1609117697" label="Door" category="100" did="1879497037" parentZoneId="1879513801" longitude="50.097733" latitude="58.036934"/>
<marker id="1609117698" label="Emax Dûl Sentry" category="71" did="1879516503" parentZoneId="1879513801" longitude="50.11156" latitude="57.92244"/>
<marker id="1609117699" label="Emax Dûl Guard" category="71" did="1879516497" parentZoneId="1879513801" longitude="50.11156" latitude="57.92244"/>
<marker id="1609117700" label="Priestess of Command" category="71" did="1879516507" parentZoneId="1879513801" longitude="50.11156" latitude="57.92244"/>
<marker id="1609117701" label="Door" category="100" did="1879518173" parentZoneId="1879513801" longitude="50.248787" latitude="57.26076"/>
<marker id="1609117702" label="Subuzûri" category="71" did="1879518206" parentZoneId="1879513801" longitude="50.09035" latitude="57.994003"/>
<marker id="1609117703" label="Subuzûri" category="71" did="1879518206" parentZoneId="1879513801" longitude="51.064472" latitude="57.823593"/>
<marker id="1609117704" label="Subuzûri" category="71" did="1879518208" parentZoneId="1879513801" longitude="50.105583" latitude="57.993183"/>
<marker id="1609117705" label="Subuzûri" category="71" did="1879518208" parentZoneId="1879513801" longitude="51.07865" latitude="57.817772"/>
<marker id="1609117706" label="Ordâkhai Bóro" category="71" did="1879512889" parentZoneId="1879513801" longitude="50.11156" latitude="57.92244"/>
<marker id="1609117707" label="Ordâkhai Cat-keeper" category="71" did="1879512901" parentZoneId="1879513801" longitude="50.11156" latitude="57.92244"/>
<marker id="1609117708" label="Ordâkhai Warrior" category="71" did="1879512898" parentZoneId="1879513801" longitude="50.11156" latitude="57.92244"/>
<marker id="1609117709" label="Ordâkhai Look-out" category="71" did="1879512911" parentZoneId="1879513801" longitude="50.11156" latitude="57.92244"/>
<marker id="1609117710" label="Ordâkhai Champion" category="71" did="1879512906" parentZoneId="1879513801" longitude="50.11156" latitude="57.92244"/>
<marker id="1609117711" label="Ordâkhai Sorcerer" category="71" did="1879512912" parentZoneId="1879513801" longitude="50.11156" latitude="57.92244"/>
<marker id="1609117712" label="Ordâkhai Bóro" category="71" did="1879513297" parentZoneId="1879513801" longitude="50.11156" latitude="57.92244"/>
<marker id="1609117713" label="Door" category="100" did="1879518173" parentZoneId="1879513801" longitude="50.093594" latitude="57.75996"/>
<marker id="1609117714" label="Gate Lever" category="73" did="1879517057" parentZoneId="1879513801" longitude="50.12203" latitude="58.001854"/>
<marker id="1609117715" label="Door" category="100" did="1879497037" parentZoneId="1879513801" longitude="50.09826" latitude="58.036697"/>
<marker id="1609117716" label="Royal Guard" category="71" did="1879516490" parentZoneId="1879513801" longitude="50.11379" latitude="57.524197"/>
<marker id="1609117717" label="Royal Guard" category="71" did="1879516490" parentZoneId="1879513801" longitude="50.46199" latitude="57.498398"/>
<marker id="1609117718" label="Royal Guard" category="71" did="1879516490" parentZoneId="1879513801" longitude="50.83492" latitude="57.72863"/>
<marker id="1609117719" label="Emax Dûl Sentry" category="71" did="1879516503" parentZoneId="1879513801" longitude="50.15279" latitude="57.905975"/>
<marker id="1609117720" label="Emax Dûl Sentry" category="71" did="1879516503" parentZoneId="1879513801" longitude="50.107674" latitude="57.941055"/>
<marker id="1609117721" label="Emax Dûl Sentry" category="71" did="1879516503" parentZoneId="1879513801" longitude="49.96289" latitude="57.872616"/>
<marker id="1609117722" label="Emax Dûl Sentry" category="71" did="1879516503" parentZoneId="1879513801" longitude="50.09715" latitude="57.81955"/>
<marker id="1609117723" label="Emax Dûl Guard" category="71" did="1879516497" parentZoneId="1879513801" longitude="50.116756" latitude="57.93906"/>
<marker id="1609117724" label="Emax Dûl Guard" category="71" did="1879516497" parentZoneId="1879513801" longitude="49.94545" latitude="57.913086"/>
<marker id="1609117725" label="Emax Dûl Guard" category="71" did="1879516497" parentZoneId="1879513801" longitude="49.9876" latitude="57.898182"/>
<marker id="1609117726" label="Emax Dûl Guard" category="71" did="1879516497" parentZoneId="1879513801" longitude="49.992947" latitude="57.905506"/>
<marker id="1609117727" label="Emax Dûl Guard" category="71" did="1879516497" parentZoneId="1879513801" longitude="49.995876" latitude="57.900192"/>
<marker id="1609117728" label="Priestess of Command" category="71" did="1879516507" parentZoneId="1879513801" longitude="50.258945" latitude="57.19494"/>
<marker id="1609117729" label="Priest of Shadow" category="71" did="1879516505" parentZoneId="1879513801" longitude="50.241505" latitude="57.195175"/>
<marker id="1609117730" label="Portcullis" category="100" did="1879502525" parentZoneId="1879513801" longitude="50.248554" latitude="57.260624"/>
<marker id="1609117731" label="Idagâl Slaughterer" category="71" did="1879512742" parentZoneId="1879513801" longitude="50.075584" latitude="57.513786"/>
<marker id="1609117732" label="Ordâkhai Cat-keeper" category="71" did="1879512901" parentZoneId="1879513801" longitude="50.075584" latitude="57.513786"/>
<marker id="1609117733" label="Idagâl Obliterator" category="71" did="1879512741" parentZoneId="1879513801" longitude="50.075584" latitude="57.513786"/>
<marker id="1609117734" label="Idagâl Devastator" category="71" did="1879512739" parentZoneId="1879513801" longitude="50.075584" latitude="57.513786"/>
<marker id="1609117735" label="Ordâkhai Warrior" category="71" did="1879512898" parentZoneId="1879513801" longitude="50.075584" latitude="57.513786"/>
<marker id="1609117736" label="Ordâkhai Look-out" category="71" did="1879512911" parentZoneId="1879513801" longitude="50.075584" latitude="57.513786"/>
<marker id="1609117737" label="Ordâkhai Champion" category="71" did="1879512906" parentZoneId="1879513801" longitude="50.075584" latitude="57.513786"/>
<marker id="1609117738" label="Royal Guard" category="71" did="1879516490" parentZoneId="1879513801" longitude="50.075584" latitude="57.513786"/>
<marker id="1609117739" label="Emax Dûl Sentry" category="71" did="1879516503" parentZoneId="1879513801" longitude="50.075584" latitude="57.513786"/>
<marker id="1609117740" label="Ordâkhai Sorceress" category="71" did="1879513302" parentZoneId="1879513801" longitude="50.075584" latitude="57.513786"/>
<marker id="1609117741" label="Emax Dûl Guard" category="71" did="1879516497" parentZoneId="1879513801" longitude="50.075584" latitude="57.513786"/>
<marker id="1609117742" label="Ordâkhai Bóro" category="71" did="1879513297" parentZoneId="1879513801" longitude="50.075584" latitude="57.513786"/>
<marker id="1609117743" label="Ordâkhai Sorcerer" category="71" did="1879512912" parentZoneId="1879513801" longitude="50.075584" latitude="57.513786"/>
<marker id="1609117744" label="Priestess of Command" category="71" did="1879516507" parentZoneId="1879513801" longitude="50.075584" latitude="57.513786"/>
<marker id="1609117745" label="Ordâkhai Bóro" category="71" did="1879512889" parentZoneId="1879513801" longitude="50.075584" latitude="57.513786"/>
<marker id="1609117746" label="Priest of Shadow" category="71" did="1879516505" parentZoneId="1879513801" longitude="50.075584" latitude="57.513786"/>
<marker id="1609117747" label="Idagâl Slaughterer" category="71" did="1879512742" parentZoneId="1879513801" longitude="50.080036" latitude="57.523457"/>
<marker id="1609117748" label="Ordâkhai Cat-keeper" category="71" did="1879512901" parentZoneId="1879513801" longitude="50.080036" latitude="57.523457"/>
<marker id="1609117749" label="Idagâl Obliterator" category="71" did="1879512741" parentZoneId="1879513801" longitude="50.080036" latitude="57.523457"/>
<marker id="1609117750" label="Idagâl Devastator" category="71" did="1879512739" parentZoneId="1879513801" longitude="50.080036" latitude="57.523457"/>
<marker id="1609117751" label="Ordâkhai Warrior" category="71" did="1879512898" parentZoneId="1879513801" longitude="50.080036" latitude="57.523457"/>
<marker id="1609117752" label="Ordâkhai Look-out" category="71" did="1879512911" parentZoneId="1879513801" longitude="50.080036" latitude="57.523457"/>
<marker id="1609117753" label="Ordâkhai Champion" category="71" did="1879512906" parentZoneId="1879513801" longitude="50.080036" latitude="57.523457"/>
<marker id="1609117754" label="Royal Guard" category="71" did="1879516490" parentZoneId="1879513801" longitude="50.080036" latitude="57.523457"/>
<marker id="1609117755" label="Emax Dûl Sentry" category="71" did="1879516503" parentZoneId="1879513801" longitude="50.080036" latitude="57.523457"/>
<marker id="1609117756" label="Ordâkhai Sorceress" category="71" did="1879513302" parentZoneId="1879513801" longitude="50.080036" latitude="57.523457"/>
<marker id="1609117757" label="Emax Dûl Guard" category="71" did="1879516497" parentZoneId="1879513801" longitude="50.080036" latitude="57.523457"/>
<marker id="1609117758" label="Ordâkhai Bóro" category="71" did="1879513297" parentZoneId="1879513801" longitude="50.080036" latitude="57.523457"/>
<marker id="1609117759" label="Ordâkhai Sorcerer" category="71" did="1879512912" parentZoneId="1879513801" longitude="50.080036" latitude="57.523457"/>
<marker id="1609117760" label="Priestess of Command" category="71" did="1879516507" parentZoneId="1879513801" longitude="50.080036" latitude="57.523457"/>
<marker id="1609117761" label="Ordâkhai Bóro" category="71" did="1879512889" parentZoneId="1879513801" longitude="50.080036" latitude="57.523457"/>
<marker id="1609117762" label="Priest of Shadow" category="71" did="1879516505" parentZoneId="1879513801" longitude="50.080036" latitude="57.523457"/>
<marker id="1609117763" label="Idagâl Slaughterer" category="71" did="1879512742" parentZoneId="1879513801" longitude="50.225468" latitude="57.353085"/>
<marker id="1609117764" label="Ordâkhai Cat-keeper" category="71" did="1879512901" parentZoneId="1879513801" longitude="50.225468" latitude="57.353085"/>
<marker id="1609117765" label="Idagâl Obliterator" category="71" did="1879512741" parentZoneId="1879513801" longitude="50.225468" latitude="57.353085"/>
<marker id="1609117766" label="Idagâl Devastator" category="71" did="1879512739" parentZoneId="1879513801" longitude="50.225468" latitude="57.353085"/>
<marker id="1609117767" label="Ordâkhai Warrior" category="71" did="1879512898" parentZoneId="1879513801" longitude="50.225468" latitude="57.353085"/>
<marker id="1609117768" label="Ordâkhai Look-out" category="71" did="1879512911" parentZoneId="1879513801" longitude="50.225468" latitude="57.353085"/>
<marker id="1609117769" label="Ordâkhai Champion" category="71" did="1879512906" parentZoneId="1879513801" longitude="50.225468" latitude="57.353085"/>
<marker id="1609117770" label="Royal Guard" category="71" did="1879516490" parentZoneId="1879513801" longitude="50.225468" latitude="57.353085"/>
<marker id="1609117771" label="Emax Dûl Sentry" category="71" did="1879516503" parentZoneId="1879513801" longitude="50.225468" latitude="57.353085"/>
<marker id="1609117772" label="Ordâkhai Sorceress" category="71" did="1879513302" parentZoneId="1879513801" longitude="50.225468" latitude="57.353085"/>
<marker id="1609117773" label="Emax Dûl Guard" category="71" did="1879516497" parentZoneId="1879513801" longitude="50.225468" latitude="57.353085"/>
<marker id="1609117774" label="Ordâkhai Bóro" category="71" did="1879513297" parentZoneId="1879513801" longitude="50.225468" latitude="57.353085"/>
<marker id="1609117775" label="Ordâkhai Sorcerer" category="71" did="1879512912" parentZoneId="1879513801" longitude="50.225468" latitude="57.353085"/>
<marker id="1609117776" label="Priestess of Command" category="71" did="1879516507" parentZoneId="1879513801" longitude="50.225468" latitude="57.353085"/>
<marker id="1609117777" label="Ordâkhai Bóro" category="71" did="1879512889" parentZoneId="1879513801" longitude="50.225468" latitude="57.353085"/>
<marker id="1609117778" label="Priest of Shadow" category="71" did="1879516505" parentZoneId="1879513801" longitude="50.225468" latitude="57.353085"/>
<marker id="1609117779" label="Idagâl Slaughterer" category="71" did="1879512742" parentZoneId="1879513801" longitude="50.247616" latitude="57.20246"/>
<marker id="1609117780" label="Ordâkhai Cat-keeper" category="71" did="1879512901" parentZoneId="1879513801" longitude="50.247616" latitude="57.20246"/>
<marker id="1609117781" label="Idagâl Obliterator" category="71" did="1879512741" parentZoneId="1879513801" longitude="50.247616" latitude="57.20246"/>
<marker id="1609117782" label="Idagâl Devastator" category="71" did="1879512739" parentZoneId="1879513801" longitude="50.247616" latitude="57.20246"/>
<marker id="1609117783" label="Ordâkhai Warrior" category="71" did="1879512898" parentZoneId="1879513801" longitude="50.247616" latitude="57.20246"/>
<marker id="1609117784" label="Ordâkhai Look-out" category="71" did="1879512911" parentZoneId="1879513801" longitude="50.247616" latitude="57.20246"/>
<marker id="1609117785" label="Ordâkhai Champion" category="71" did="1879512906" parentZoneId="1879513801" longitude="50.247616" latitude="57.20246"/>
<marker id="1609117786" label="Royal Guard" category="71" did="1879516490" parentZoneId="1879513801" longitude="50.247616" latitude="57.20246"/>
<marker id="1609117787" label="Emax Dûl Sentry" category="71" did="1879516503" parentZoneId="1879513801" longitude="50.247616" latitude="57.20246"/>
<marker id="1609117788" label="Ordâkhai Sorceress" category="71" did="1879513302" parentZoneId="1879513801" longitude="50.247616" latitude="57.20246"/>
<marker id="1609117789" label="Emax Dûl Guard" category="71" did="1879516497" parentZoneId="1879513801" longitude="50.247616" latitude="57.20246"/>
<marker id="1609117790" label="Ordâkhai Bóro" category="71" did="1879513297" parentZoneId="1879513801" longitude="50.247616" latitude="57.20246"/>
<marker id="1609117791" label="Ordâkhai Sorcerer" category="71" did="1879512912" parentZoneId="1879513801" longitude="50.247616" latitude="57.20246"/>
<marker id="1609117792" label="Priestess of Command" category="71" did="1879516507" parentZoneId="1879513801" longitude="50.247616" latitude="57.20246"/>
<marker id="1609117793" label="Ordâkhai Bóro" category="71" did="1879512889" parentZoneId="1879513801" longitude="50.247616" latitude="57.20246"/>
<marker id="1609117794" label="Priest of Shadow" category="71" did="1879516505" parentZoneId="1879513801" longitude="50.247616" latitude="57.20246"/>
<marker id="1609117795" label="Idagâl Slaughterer" category="71" did="1879512742" parentZoneId="1879513801" longitude="50.25082" latitude="56.96385"/>
<marker id="1609117796" label="Ordâkhai Cat-keeper" category="71" did="1879512901" parentZoneId="1879513801" longitude="50.25082" latitude="56.96385"/>
<marker id="1609117797" label="Idagâl Obliterator" category="71" did="1879512741" parentZoneId="1879513801" longitude="50.25082" latitude="56.96385"/>
<marker id="1609117798" label="Idagâl Devastator" category="71" did="1879512739" parentZoneId="1879513801" longitude="50.25082" latitude="56.96385"/>
<marker id="1609117799" label="Ordâkhai Warrior" category="71" did="1879512898" parentZoneId="1879513801" longitude="50.25082" latitude="56.96385"/>
<marker id="1609117800" label="Ordâkhai Look-out" category="71" did="1879512911" parentZoneId="1879513801" longitude="50.25082" latitude="56.96385"/>
<marker id="1609117801" label="Ordâkhai Champion" category="71" did="1879512906" parentZoneId="1879513801" longitude="50.25082" latitude="56.96385"/>
<marker id="1609117802" label="Royal Guard" category="71" did="1879516490" parentZoneId="1879513801" longitude="50.25082" latitude="56.96385"/>
<marker id="1609117803" label="Emax Dûl Sentry" category="71" did="1879516503" parentZoneId="1879513801" longitude="50.25082" latitude="56.96385"/>
<marker id="1609117804" label="Ordâkhai Sorceress" category="71" did="1879513302" parentZoneId="1879513801" longitude="50.25082" latitude="56.96385"/>
<marker id="1609117805" label="Emax Dûl Guard" category="71" did="1879516497" parentZoneId="1879513801" longitude="50.25082" latitude="56.96385"/>
<marker id="1609117806" label="Ordâkhai Bóro" category="71" did="1879513297" parentZoneId="1879513801" longitude="50.25082" latitude="56.96385"/>
<marker id="1609117807" label="Ordâkhai Sorcerer" category="71" did="1879512912" parentZoneId="1879513801" longitude="50.25082" latitude="56.96385"/>
<marker id="1609117808" label="Priestess of Command" category="71" did="1879516507" parentZoneId="1879513801" longitude="50.25082" latitude="56.96385"/>
<marker id="1609117809" label="Ordâkhai Bóro" category="71" did="1879512889" parentZoneId="1879513801" longitude="50.25082" latitude="56.96385"/>
<marker id="1609117810" label="Priest of Shadow" category="71" did="1879516505" parentZoneId="1879513801" longitude="50.25082" latitude="56.96385"/>
<marker id="1609117811" label="Idagâl Slaughterer" category="71" did="1879512742" parentZoneId="1879513801" longitude="50.323242" latitude="57.10113"/>
<marker id="1609117812" label="Ordâkhai Cat-keeper" category="71" did="1879512901" parentZoneId="1879513801" longitude="50.323242" latitude="57.10113"/>
<marker id="1609117813" label="Idagâl Obliterator" category="71" did="1879512741" parentZoneId="1879513801" longitude="50.323242" latitude="57.10113"/>
<marker id="1609117814" label="Idagâl Devastator" category="71" did="1879512739" parentZoneId="1879513801" longitude="50.323242" latitude="57.10113"/>
<marker id="1609117815" label="Ordâkhai Warrior" category="71" did="1879512898" parentZoneId="1879513801" longitude="50.323242" latitude="57.10113"/>
<marker id="1609117816" label="Ordâkhai Look-out" category="71" did="1879512911" parentZoneId="1879513801" longitude="50.323242" latitude="57.10113"/>
<marker id="1609117817" label="Ordâkhai Champion" category="71" did="1879512906" parentZoneId="1879513801" longitude="50.323242" latitude="57.10113"/>
<marker id="1609117818" label="Royal Guard" category="71" did="1879516490" parentZoneId="1879513801" longitude="50.323242" latitude="57.10113"/>
<marker id="1609117819" label="Emax Dûl Sentry" category="71" did="1879516503" parentZoneId="1879513801" longitude="50.323242" latitude="57.10113"/>
<marker id="1609117820" label="Ordâkhai Sorceress" category="71" did="1879513302" parentZoneId="1879513801" longitude="50.323242" latitude="57.10113"/>
<marker id="1609117821" label="Emax Dûl Guard" category="71" did="1879516497" parentZoneId="1879513801" longitude="50.323242" latitude="57.10113"/>
<marker id="1609117822" label="Ordâkhai Bóro" category="71" did="1879513297" parentZoneId="1879513801" longitude="50.323242" latitude="57.10113"/>
<marker id="1609117823" label="Ordâkhai Sorcerer" category="71" did="1879512912" parentZoneId="1879513801" longitude="50.323242" latitude="57.10113"/>
<marker id="1609117824" label="Priestess of Command" category="71" did="1879516507" parentZoneId="1879513801" longitude="50.323242" latitude="57.10113"/>
<marker id="1609117825" label="Ordâkhai Bóro" category="71" did="1879512889" parentZoneId="1879513801" longitude="50.323242" latitude="57.10113"/>
<marker id="1609117826" label="Priest of Shadow" category="71" did="1879516505" parentZoneId="1879513801" longitude="50.323242" latitude="57.10113"/>
<marker id="1609117827" label="Idagâl Slaughterer" category="71" did="1879512742" parentZoneId="1879513801" longitude="50.177498" latitude="57.09379"/>
<marker id="1609117828" label="Ordâkhai Cat-keeper" category="71" did="1879512901" parentZoneId="1879513801" longitude="50.177498" latitude="57.09379"/>
<marker id="1609117829" label="Idagâl Obliterator" category="71" did="1879512741" parentZoneId="1879513801" longitude="50.177498" latitude="57.09379"/>
<marker id="1609117830" label="Idagâl Devastator" category="71" did="1879512739" parentZoneId="1879513801" longitude="50.177498" latitude="57.09379"/>
<marker id="1609117831" label="Ordâkhai Warrior" category="71" did="1879512898" parentZoneId="1879513801" longitude="50.177498" latitude="57.09379"/>
<marker id="1609117832" label="Ordâkhai Look-out" category="71" did="1879512911" parentZoneId="1879513801" longitude="50.177498" latitude="57.09379"/>
<marker id="1609117833" label="Ordâkhai Champion" category="71" did="1879512906" parentZoneId="1879513801" longitude="50.177498" latitude="57.09379"/>
<marker id="1609117834" label="Royal Guard" category="71" did="1879516490" parentZoneId="1879513801" longitude="50.177498" latitude="57.09379"/>
<marker id="1609117835" label="Emax Dûl Sentry" category="71" did="1879516503" parentZoneId="1879513801" longitude="50.177498" latitude="57.09379"/>
<marker id="1609117836" label="Ordâkhai Sorceress" category="71" did="1879513302" parentZoneId="1879513801" longitude="50.177498" latitude="57.09379"/>
<marker id="1609117837" label="Emax Dûl Guard" category="71" did="1879516497" parentZoneId="1879513801" longitude="50.177498" latitude="57.09379"/>
<marker id="1609117838" label="Ordâkhai Bóro" category="71" did="1879513297" parentZoneId="1879513801" longitude="50.177498" latitude="57.09379"/>
<marker id="1609117839" label="Ordâkhai Sorcerer" category="71" did="1879512912" parentZoneId="1879513801" longitude="50.177498" latitude="57.09379"/>
<marker id="1609117840" label="Priestess of Command" category="71" did="1879516507" parentZoneId="1879513801" longitude="50.177498" latitude="57.09379"/>
<marker id="1609117841" label="Ordâkhai Bóro" category="71" did="1879512889" parentZoneId="1879513801" longitude="50.177498" latitude="57.09379"/>
<marker id="1609117842" label="Priest of Shadow" category="71" did="1879516505" parentZoneId="1879513801" longitude="50.177498" latitude="57.09379"/>
<marker id="1609117843" label="Idagâl Slaughterer" category="71" did="1879512742" parentZoneId="1879513801" longitude="50.175587" latitude="56.978767"/>
<marker id="1609117844" label="Ordâkhai Cat-keeper" category="71" did="1879512901" parentZoneId="1879513801" longitude="50.175587" latitude="56.978767"/>
<marker id="1609117845" label="Idagâl Obliterator" category="71" did="1879512741" parentZoneId="1879513801" longitude="50.175587" latitude="56.978767"/>
<marker id="1609117846" label="Idagâl Devastator" category="71" did="1879512739" parentZoneId="1879513801" longitude="50.175587" latitude="56.978767"/>
<marker id="1609117847" label="Ordâkhai Warrior" category="71" did="1879512898" parentZoneId="1879513801" longitude="50.175587" latitude="56.978767"/>
<marker id="1609117848" label="Ordâkhai Look-out" category="71" did="1879512911" parentZoneId="1879513801" longitude="50.175587" latitude="56.978767"/>
<marker id="1609117849" label="Ordâkhai Champion" category="71" did="1879512906" parentZoneId="1879513801" longitude="50.175587" latitude="56.978767"/>
<marker id="1609117850" label="Royal Guard" category="71" did="1879516490" parentZoneId="1879513801" longitude="50.175587" latitude="56.978767"/>
<marker id="1609117851" label="Emax Dûl Sentry" category="71" did="1879516503" parentZoneId="1879513801" longitude="50.175587" latitude="56.978767"/>
<marker id="1609117852" label="Ordâkhai Sorceress" category="71" did="1879513302" parentZoneId="1879513801" longitude="50.175587" latitude="56.978767"/>
<marker id="1609117853" label="Emax Dûl Guard" category="71" did="1879516497" parentZoneId="1879513801" longitude="50.175587" latitude="56.978767"/>
<marker id="1609117854" label="Ordâkhai Bóro" category="71" did="1879513297" parentZoneId="1879513801" longitude="50.175587" latitude="56.978767"/>
<marker id="1609117855" label="Ordâkhai Sorcerer" category="71" did="1879512912" parentZoneId="1879513801" longitude="50.175587" latitude="56.978767"/>
<marker id="1609117856" label="Priestess of Command" category="71" did="1879516507" parentZoneId="1879513801" longitude="50.175587" latitude="56.978767"/>
<marker id="1609117857" label="Ordâkhai Bóro" category="71" did="1879512889" parentZoneId="1879513801" longitude="50.175587" latitude="56.978767"/>
<marker id="1609117858" label="Priest of Shadow" category="71" did="1879516505" parentZoneId="1879513801" longitude="50.175587" latitude="56.978767"/>
<marker id="1609117859" label="Idagâl Slaughterer" category="71" did="1879512742" parentZoneId="1879513801" longitude="50.326385" latitude="56.98082"/>
<marker id="1609117860" label="Ordâkhai Cat-keeper" category="71" did="1879512901" parentZoneId="1879513801" longitude="50.326385" latitude="56.98082"/>
<marker id="1609117861" label="Idagâl Obliterator" category="71" did="1879512741" parentZoneId="1879513801" longitude="50.326385" latitude="56.98082"/>
<marker id="1609117862" label="Idagâl Devastator" category="71" did="1879512739" parentZoneId="1879513801" longitude="50.326385" latitude="56.98082"/>
<marker id="1609117863" label="Ordâkhai Warrior" category="71" did="1879512898" parentZoneId="1879513801" longitude="50.326385" latitude="56.98082"/>
<marker id="1609117864" label="Ordâkhai Look-out" category="71" did="1879512911" parentZoneId="1879513801" longitude="50.326385" latitude="56.98082"/>
<marker id="1609117865" label="Ordâkhai Champion" category="71" did="1879512906" parentZoneId="1879513801" longitude="50.326385" latitude="56.98082"/>
<marker id="1609117866" label="Royal Guard" category="71" did="1879516490" parentZoneId="1879513801" longitude="50.326385" latitude="56.98082"/>
<marker id="1609117867" label="Emax Dûl Sentry" category="71" did="1879516503" parentZoneId="1879513801" longitude="50.326385" latitude="56.98082"/>
<marker id="1609117868" label="Ordâkhai Sorceress" category="71" did="1879513302" parentZoneId="1879513801" longitude="50.326385" latitude="56.98082"/>
<marker id="1609117869" label="Emax Dûl Guard" category="71" did="1879516497" parentZoneId="1879513801" longitude="50.326385" latitude="56.98082"/>
<marker id="1609117870" label="Ordâkhai Bóro" category="71" did="1879513297" parentZoneId="1879513801" longitude="50.326385" latitude="56.98082"/>
<marker id="1609117871" label="Ordâkhai Sorcerer" category="71" did="1879512912" parentZoneId="1879513801" longitude="50.326385" latitude="56.98082"/>
<marker id="1609117872" label="Priestess of Command" category="71" did="1879516507" parentZoneId="1879513801" longitude="50.326385" latitude="56.98082"/>
<marker id="1609117873" label="Ordâkhai Bóro" category="71" did="1879512889" parentZoneId="1879513801" longitude="50.326385" latitude="56.98082"/>
<marker id="1609117874" label="Priest of Shadow" category="71" did="1879516505" parentZoneId="1879513801" longitude="50.326385" latitude="56.98082"/>
<marker id="1609117875" label="Idagâl Slaughterer" category="71" did="1879512742" parentZoneId="1879513801" longitude="50.219" latitude="57.636288"/>
<marker id="1609117876" label="Ordâkhai Cat-keeper" category="71" did="1879512901" parentZoneId="1879513801" longitude="50.219" latitude="57.636288"/>
<marker id="1609117877" label="Idagâl Obliterator" category="71" did="1879512741" parentZoneId="1879513801" longitude="50.219" latitude="57.636288"/>
<marker id="1609117878" label="Idagâl Devastator" category="71" did="1879512739" parentZoneId="1879513801" longitude="50.219" latitude="57.636288"/>
<marker id="1609117879" label="Ordâkhai Warrior" category="71" did="1879512898" parentZoneId="1879513801" longitude="50.219" latitude="57.636288"/>
<marker id="1609117880" label="Ordâkhai Look-out" category="71" did="1879512911" parentZoneId="1879513801" longitude="50.219" latitude="57.636288"/>
<marker id="1609117881" label="Ordâkhai Champion" category="71" did="1879512906" parentZoneId="1879513801" longitude="50.219" latitude="57.636288"/>
<marker id="1609117882" label="Royal Guard" category="71" did="1879516490" parentZoneId="1879513801" longitude="50.219" latitude="57.636288"/>
<marker id="1609117883" label="Emax Dûl Sentry" category="71" did="1879516503" parentZoneId="1879513801" longitude="50.219" latitude="57.636288"/>
<marker id="1609117884" label="Ordâkhai Sorceress" category="71" did="1879513302" parentZoneId="1879513801" longitude="50.219" latitude="57.636288"/>
<marker id="1609117885" label="Emax Dûl Guard" category="71" did="1879516497" parentZoneId="1879513801" longitude="50.219" latitude="57.636288"/>
<marker id="1609117886" label="Ordâkhai Bóro" category="71" did="1879513297" parentZoneId="1879513801" longitude="50.219" latitude="57.636288"/>
<marker id="1609117887" label="Ordâkhai Sorcerer" category="71" did="1879512912" parentZoneId="1879513801" longitude="50.219" latitude="57.636288"/>
<marker id="1609117888" label="Priestess of Command" category="71" did="1879516507" parentZoneId="1879513801" longitude="50.219" latitude="57.636288"/>
<marker id="1609117889" label="Ordâkhai Bóro" category="71" did="1879512889" parentZoneId="1879513801" longitude="50.219" latitude="57.636288"/>
<marker id="1609117890" label="Priest of Shadow" category="71" did="1879516505" parentZoneId="1879513801" longitude="50.219" latitude="57.636288"/>
<marker id="1609117891" label="Idagâl Slaughterer" category="71" did="1879512742" parentZoneId="1879513801" longitude="50.476833" latitude="57.507324"/>
<marker id="1609117892" label="Ordâkhai Cat-keeper" category="71" did="1879512901" parentZoneId="1879513801" longitude="50.476833" latitude="57.507324"/>
<marker id="1609117893" label="Idagâl Obliterator" category="71" did="1879512741" parentZoneId="1879513801" longitude="50.476833" latitude="57.507324"/>
<marker id="1609117894" label="Idagâl Devastator" category="71" did="1879512739" parentZoneId="1879513801" longitude="50.476833" latitude="57.507324"/>
<marker id="1609117895" label="Ordâkhai Warrior" category="71" did="1879512898" parentZoneId="1879513801" longitude="50.476833" latitude="57.507324"/>
<marker id="1609117896" label="Ordâkhai Look-out" category="71" did="1879512911" parentZoneId="1879513801" longitude="50.476833" latitude="57.507324"/>
<marker id="1609117897" label="Ordâkhai Champion" category="71" did="1879512906" parentZoneId="1879513801" longitude="50.476833" latitude="57.507324"/>
<marker id="1609117898" label="Royal Guard" category="71" did="1879516490" parentZoneId="1879513801" longitude="50.476833" latitude="57.507324"/>
<marker id="1609117899" label="Emax Dûl Sentry" category="71" did="1879516503" parentZoneId="1879513801" longitude="50.476833" latitude="57.507324"/>
<marker id="1609117900" label="Ordâkhai Sorceress" category="71" did="1879513302" parentZoneId="1879513801" longitude="50.476833" latitude="57.507324"/>
<marker id="1609117901" label="Emax Dûl Guard" category="71" did="1879516497" parentZoneId="1879513801" longitude="50.476833" latitude="57.507324"/>
<marker id="1609117902" label="Ordâkhai Bóro" category="71" did="1879513297" parentZoneId="1879513801" longitude="50.476833" latitude="57.507324"/>
<marker id="1609117903" label="Ordâkhai Sorcerer" category="71" did="1879512912" parentZoneId="1879513801" longitude="50.476833" latitude="57.507324"/>
<marker id="1609117904" label="Priestess of Command" category="71" did="1879516507" parentZoneId="1879513801" longitude="50.476833" latitude="57.507324"/>
<marker id="1609117905" label="Ordâkhai Bóro" category="71" did="1879512889" parentZoneId="1879513801" longitude="50.476833" latitude="57.507324"/>
<marker id="1609117906" label="Priest of Shadow" category="71" did="1879516505" parentZoneId="1879513801" longitude="50.476833" latitude="57.507324"/>
<marker id="1609117907" label="Idagâl Slaughterer" category="71" did="1879512742" parentZoneId="1879513801" longitude="50.4725" latitude="57.49408"/>
<marker id="1609117908" label="Ordâkhai Cat-keeper" category="71" did="1879512901" parentZoneId="1879513801" longitude="50.4725" latitude="57.49408"/>
<marker id="1609117909" label="Idagâl Obliterator" category="71" did="1879512741" parentZoneId="1879513801" longitude="50.4725" latitude="57.49408"/>
<marker id="1609117910" label="Idagâl Devastator" category="71" did="1879512739" parentZoneId="1879513801" longitude="50.4725" latitude="57.49408"/>
<marker id="1609117911" label="Ordâkhai Warrior" category="71" did="1879512898" parentZoneId="1879513801" longitude="50.4725" latitude="57.49408"/>
<marker id="1609117912" label="Ordâkhai Look-out" category="71" did="1879512911" parentZoneId="1879513801" longitude="50.4725" latitude="57.49408"/>
<marker id="1609117913" label="Ordâkhai Champion" category="71" did="1879512906" parentZoneId="1879513801" longitude="50.4725" latitude="57.49408"/>
<marker id="1609117914" label="Royal Guard" category="71" did="1879516490" parentZoneId="1879513801" longitude="50.4725" latitude="57.49408"/>
<marker id="1609117915" label="Emax Dûl Sentry" category="71" did="1879516503" parentZoneId="1879513801" longitude="50.4725" latitude="57.49408"/>
<marker id="1609117916" label="Ordâkhai Sorceress" category="71" did="1879513302" parentZoneId="1879513801" longitude="50.4725" latitude="57.49408"/>
<marker id="1609117917" label="Emax Dûl Guard" category="71" did="1879516497" parentZoneId="1879513801" longitude="50.4725" latitude="57.49408"/>
<marker id="1609117918" label="Ordâkhai Bóro" category="71" did="1879513297" parentZoneId="1879513801" longitude="50.4725" latitude="57.49408"/>
<marker id="1609117919" label="Ordâkhai Sorcerer" category="71" did="1879512912" parentZoneId="1879513801" longitude="50.4725" latitude="57.49408"/>
<marker id="1609117920" label="Priestess of Command" category="71" did="1879516507" parentZoneId="1879513801" longitude="50.4725" latitude="57.49408"/>
<marker id="1609117921" label="Ordâkhai Bóro" category="71" did="1879512889" parentZoneId="1879513801" longitude="50.4725" latitude="57.49408"/>
<marker id="1609117922" label="Priest of Shadow" category="71" did="1879516505" parentZoneId="1879513801" longitude="50.4725" latitude="57.49408"/>
<marker id="1609117923" label="Idagâl Slaughterer" category="71" did="1879512742" parentZoneId="1879513801" longitude="50.269745" latitude="57.514275"/>
<marker id="1609117924" label="Ordâkhai Cat-keeper" category="71" did="1879512901" parentZoneId="1879513801" longitude="50.269745" latitude="57.514275"/>
<marker id="1609117925" label="Idagâl Obliterator" category="71" did="1879512741" parentZoneId="1879513801" longitude="50.269745" latitude="57.514275"/>
<marker id="1609117926" label="Idagâl Devastator" category="71" did="1879512739" parentZoneId="1879513801" longitude="50.269745" latitude="57.514275"/>
<marker id="1609117927" label="Ordâkhai Warrior" category="71" did="1879512898" parentZoneId="1879513801" longitude="50.269745" latitude="57.514275"/>
<marker id="1609117928" label="Ordâkhai Look-out" category="71" did="1879512911" parentZoneId="1879513801" longitude="50.269745" latitude="57.514275"/>
<marker id="1609117929" label="Ordâkhai Champion" category="71" did="1879512906" parentZoneId="1879513801" longitude="50.269745" latitude="57.514275"/>
<marker id="1609117930" label="Royal Guard" category="71" did="1879516490" parentZoneId="1879513801" longitude="50.269745" latitude="57.514275"/>
<marker id="1609117931" label="Emax Dûl Sentry" category="71" did="1879516503" parentZoneId="1879513801" longitude="50.269745" latitude="57.514275"/>
<marker id="1609117932" label="Ordâkhai Sorceress" category="71" did="1879513302" parentZoneId="1879513801" longitude="50.269745" latitude="57.514275"/>
<marker id="1609117933" label="Emax Dûl Guard" category="71" did="1879516497" parentZoneId="1879513801" longitude="50.269745" latitude="57.514275"/>
<marker id="1609117934" label="Ordâkhai Bóro" category="71" did="1879513297" parentZoneId="1879513801" longitude="50.269745" latitude="57.514275"/>
<marker id="1609117935" label="Ordâkhai Sorcerer" category="71" did="1879512912" parentZoneId="1879513801" longitude="50.269745" latitude="57.514275"/>
<marker id="1609117936" label="Priestess of Command" category="71" did="1879516507" parentZoneId="1879513801" longitude="50.269745" latitude="57.514275"/>
<marker id="1609117937" label="Ordâkhai Bóro" category="71" did="1879512889" parentZoneId="1879513801" longitude="50.269745" latitude="57.514275"/>
<marker id="1609117938" label="Priest of Shadow" category="71" did="1879516505" parentZoneId="1879513801" longitude="50.269745" latitude="57.514275"/>
<marker id="1609117939" label="Idagâl Slaughterer" category="71" did="1879512742" parentZoneId="1879513801" longitude="50.73541" latitude="57.681328"/>
<marker id="1609117940" label="Ordâkhai Cat-keeper" category="71" did="1879512901" parentZoneId="1879513801" longitude="50.73541" latitude="57.681328"/>
<marker id="1609117941" label="Idagâl Obliterator" category="71" did="1879512741" parentZoneId="1879513801" longitude="50.73541" latitude="57.681328"/>
<marker id="1609117942" label="Idagâl Devastator" category="71" did="1879512739" parentZoneId="1879513801" longitude="50.73541" latitude="57.681328"/>
<marker id="1609117943" label="Ordâkhai Warrior" category="71" did="1879512898" parentZoneId="1879513801" longitude="50.73541" latitude="57.681328"/>
<marker id="1609117944" label="Ordâkhai Look-out" category="71" did="1879512911" parentZoneId="1879513801" longitude="50.73541" latitude="57.681328"/>
<marker id="1609117945" label="Ordâkhai Champion" category="71" did="1879512906" parentZoneId="1879513801" longitude="50.73541" latitude="57.681328"/>
<marker id="1609117946" label="Royal Guard" category="71" did="1879516490" parentZoneId="1879513801" longitude="50.73541" latitude="57.681328"/>
<marker id="1609117947" label="Emax Dûl Sentry" category="71" did="1879516503" parentZoneId="1879513801" longitude="50.73541" latitude="57.681328"/>
<marker id="1609117948" label="Ordâkhai Sorceress" category="71" did="1879513302" parentZoneId="1879513801" longitude="50.73541" latitude="57.681328"/>
<marker id="1609117949" label="Emax Dûl Guard" category="71" did="1879516497" parentZoneId="1879513801" longitude="50.73541" latitude="57.681328"/>
<marker id="1609117950" label="Ordâkhai Bóro" category="71" did="1879513297" parentZoneId="1879513801" longitude="50.73541" latitude="57.681328"/>
<marker id="1609117951" label="Ordâkhai Sorcerer" category="71" did="1879512912" parentZoneId="1879513801" longitude="50.73541" latitude="57.681328"/>
<marker id="1609117952" label="Priestess of Command" category="71" did="1879516507" parentZoneId="1879513801" longitude="50.73541" latitude="57.681328"/>
<marker id="1609117953" label="Ordâkhai Bóro" category="71" did="1879512889" parentZoneId="1879513801" longitude="50.73541" latitude="57.681328"/>
<marker id="1609117954" label="Priest of Shadow" category="71" did="1879516505" parentZoneId="1879513801" longitude="50.73541" latitude="57.681328"/>
<marker id="1609117955" label="Idagâl Slaughterer" category="71" did="1879512742" parentZoneId="1879513801" longitude="50.832012" latitude="57.70377"/>
<marker id="1609117956" label="Ordâkhai Cat-keeper" category="71" did="1879512901" parentZoneId="1879513801" longitude="50.832012" latitude="57.70377"/>
<marker id="1609117957" label="Idagâl Obliterator" category="71" did="1879512741" parentZoneId="1879513801" longitude="50.832012" latitude="57.70377"/>
<marker id="1609117958" label="Idagâl Devastator" category="71" did="1879512739" parentZoneId="1879513801" longitude="50.832012" latitude="57.70377"/>
<marker id="1609117959" label="Ordâkhai Warrior" category="71" did="1879512898" parentZoneId="1879513801" longitude="50.832012" latitude="57.70377"/>
<marker id="1609117960" label="Ordâkhai Look-out" category="71" did="1879512911" parentZoneId="1879513801" longitude="50.832012" latitude="57.70377"/>
<marker id="1609117961" label="Ordâkhai Champion" category="71" did="1879512906" parentZoneId="1879513801" longitude="50.832012" latitude="57.70377"/>
<marker id="1609117962" label="Royal Guard" category="71" did="1879516490" parentZoneId="1879513801" longitude="50.832012" latitude="57.70377"/>
<marker id="1609117963" label="Emax Dûl Sentry" category="71" did="1879516503" parentZoneId="1879513801" longitude="50.832012" latitude="57.70377"/>
<marker id="1609117964" label="Ordâkhai Sorceress" category="71" did="1879513302" parentZoneId="1879513801" longitude="50.832012" latitude="57.70377"/>
<marker id="1609117965" label="Emax Dûl Guard" category="71" did="1879516497" parentZoneId="1879513801" longitude="50.832012" latitude="57.70377"/>
<marker id="1609117966" label="Ordâkhai Bóro" category="71" did="1879513297" parentZoneId="1879513801" longitude="50.832012" latitude="57.70377"/>
<marker id="1609117967" label="Ordâkhai Sorcerer" category="71" did="1879512912" parentZoneId="1879513801" longitude="50.832012" latitude="57.70377"/>
<marker id="1609117968" label="Priestess of Command" category="71" did="1879516507" parentZoneId="1879513801" longitude="50.832012" latitude="57.70377"/>
<marker id="1609117969" label="Ordâkhai Bóro" category="71" did="1879512889" parentZoneId="1879513801" longitude="50.832012" latitude="57.70377"/>
<marker id="1609117970" label="Priest of Shadow" category="71" did="1879516505" parentZoneId="1879513801" longitude="50.832012" latitude="57.70377"/>
<marker id="1609117971" label="Idagâl Slaughterer" category="71" did="1879512742" parentZoneId="1879513801" longitude="50.766933" latitude="58.02324"/>
<marker id="1609117972" label="Ordâkhai Cat-keeper" category="71" did="1879512901" parentZoneId="1879513801" longitude="50.766933" latitude="58.02324"/>
<marker id="1609117973" label="Idagâl Obliterator" category="71" did="1879512741" parentZoneId="1879513801" longitude="50.766933" latitude="58.02324"/>
<marker id="1609117974" label="Idagâl Devastator" category="71" did="1879512739" parentZoneId="1879513801" longitude="50.766933" latitude="58.02324"/>
<marker id="1609117975" label="Ordâkhai Warrior" category="71" did="1879512898" parentZoneId="1879513801" longitude="50.766933" latitude="58.02324"/>
<marker id="1609117976" label="Ordâkhai Look-out" category="71" did="1879512911" parentZoneId="1879513801" longitude="50.766933" latitude="58.02324"/>
<marker id="1609117977" label="Ordâkhai Champion" category="71" did="1879512906" parentZoneId="1879513801" longitude="50.766933" latitude="58.02324"/>
<marker id="1609117978" label="Royal Guard" category="71" did="1879516490" parentZoneId="1879513801" longitude="50.766933" latitude="58.02324"/>
<marker id="1609117979" label="Emax Dûl Sentry" category="71" did="1879516503" parentZoneId="1879513801" longitude="50.766933" latitude="58.02324"/>
<marker id="1609117980" label="Ordâkhai Sorceress" category="71" did="1879513302" parentZoneId="1879513801" longitude="50.766933" latitude="58.02324"/>
<marker id="1609117981" label="Emax Dûl Guard" category="71" did="1879516497" parentZoneId="1879513801" longitude="50.766933" latitude="58.02324"/>
<marker id="1609117982" label="Ordâkhai Bóro" category="71" did="1879513297" parentZoneId="1879513801" longitude="50.766933" latitude="58.02324"/>
<marker id="1609117983" label="Ordâkhai Sorcerer" category="71" did="1879512912" parentZoneId="1879513801" longitude="50.766933" latitude="58.02324"/>
<marker id="1609117984" label="Priestess of Command" category="71" did="1879516507" parentZoneId="1879513801" longitude="50.766933" latitude="58.02324"/>
<marker id="1609117985" label="Ordâkhai Bóro" category="71" did="1879512889" parentZoneId="1879513801" longitude="50.766933" latitude="58.02324"/>
<marker id="1609117986" label="Priest of Shadow" category="71" did="1879516505" parentZoneId="1879513801" longitude="50.766933" latitude="58.02324"/>
<marker id="1609117987" label="Idagâl Slaughterer" category="71" did="1879512742" parentZoneId="1879513801" longitude="50.929314" latitude="57.76369"/>
<marker id="1609117988" label="Ordâkhai Cat-keeper" category="71" did="1879512901" parentZoneId="1879513801" longitude="50.929314" latitude="57.76369"/>
<marker id="1609117989" label="Idagâl Obliterator" category="71" did="1879512741" parentZoneId="1879513801" longitude="50.929314" latitude="57.76369"/>
<marker id="1609117990" label="Idagâl Devastator" category="71" did="1879512739" parentZoneId="1879513801" longitude="50.929314" latitude="57.76369"/>
<marker id="1609117991" label="Ordâkhai Warrior" category="71" did="1879512898" parentZoneId="1879513801" longitude="50.929314" latitude="57.76369"/>
<marker id="1609117992" label="Ordâkhai Look-out" category="71" did="1879512911" parentZoneId="1879513801" longitude="50.929314" latitude="57.76369"/>
<marker id="1609117993" label="Ordâkhai Champion" category="71" did="1879512906" parentZoneId="1879513801" longitude="50.929314" latitude="57.76369"/>
<marker id="1609117994" label="Royal Guard" category="71" did="1879516490" parentZoneId="1879513801" longitude="50.929314" latitude="57.76369"/>
<marker id="1609117995" label="Emax Dûl Sentry" category="71" did="1879516503" parentZoneId="1879513801" longitude="50.929314" latitude="57.76369"/>
<marker id="1609117996" label="Ordâkhai Sorceress" category="71" did="1879513302" parentZoneId="1879513801" longitude="50.929314" latitude="57.76369"/>
<marker id="1609117997" label="Emax Dûl Guard" category="71" did="1879516497" parentZoneId="1879513801" longitude="50.929314" latitude="57.76369"/>
<marker id="1609117998" label="Ordâkhai Bóro" category="71" did="1879513297" parentZoneId="1879513801" longitude="50.929314" latitude="57.76369"/>
<marker id="1609117999" label="Ordâkhai Sorcerer" category="71" did="1879512912" parentZoneId="1879513801" longitude="50.929314" latitude="57.76369"/>
<marker id="1609118000" label="Priestess of Command" category="71" did="1879516507" parentZoneId="1879513801" longitude="50.929314" latitude="57.76369"/>
<marker id="1609118001" label="Ordâkhai Bóro" category="71" did="1879512889" parentZoneId="1879513801" longitude="50.929314" latitude="57.76369"/>
<marker id="1609118002" label="Priest of Shadow" category="71" did="1879516505" parentZoneId="1879513801" longitude="50.929314" latitude="57.76369"/>
<marker id="1609118003" label="Idagâl Slaughterer" category="71" did="1879512742" parentZoneId="1879513801" longitude="50.938515" latitude="57.769608"/>
<marker id="1609118004" label="Ordâkhai Cat-keeper" category="71" did="1879512901" parentZoneId="1879513801" longitude="50.938515" latitude="57.769608"/>
<marker id="1609118005" label="Idagâl Obliterator" category="71" did="1879512741" parentZoneId="1879513801" longitude="50.938515" latitude="57.769608"/>
<marker id="1609118006" label="Idagâl Devastator" category="71" did="1879512739" parentZoneId="1879513801" longitude="50.938515" latitude="57.769608"/>
<marker id="1609118007" label="Ordâkhai Warrior" category="71" did="1879512898" parentZoneId="1879513801" longitude="50.938515" latitude="57.769608"/>
<marker id="1609118008" label="Ordâkhai Look-out" category="71" did="1879512911" parentZoneId="1879513801" longitude="50.938515" latitude="57.769608"/>
<marker id="1609118009" label="Ordâkhai Champion" category="71" did="1879512906" parentZoneId="1879513801" longitude="50.938515" latitude="57.769608"/>
<marker id="1609118010" label="Royal Guard" category="71" did="1879516490" parentZoneId="1879513801" longitude="50.938515" latitude="57.769608"/>
<marker id="1609118011" label="Emax Dûl Sentry" category="71" did="1879516503" parentZoneId="1879513801" longitude="50.938515" latitude="57.769608"/>
<marker id="1609118012" label="Ordâkhai Sorceress" category="71" did="1879513302" parentZoneId="1879513801" longitude="50.938515" latitude="57.769608"/>
<marker id="1609118013" label="Emax Dûl Guard" category="71" did="1879516497" parentZoneId="1879513801" longitude="50.938515" latitude="57.769608"/>
<marker id="1609118014" label="Ordâkhai Bóro" category="71" did="1879513297" parentZoneId="1879513801" longitude="50.938515" latitude="57.769608"/>
<marker id="1609118015" label="Ordâkhai Sorcerer" category="71" did="1879512912" parentZoneId="1879513801" longitude="50.938515" latitude="57.769608"/>
<marker id="1609118016" label="Priestess of Command" category="71" did="1879516507" parentZoneId="1879513801" longitude="50.938515" latitude="57.769608"/>
<marker id="1609118017" label="Ordâkhai Bóro" category="71" did="1879512889" parentZoneId="1879513801" longitude="50.938515" latitude="57.769608"/>
<marker id="1609118018" label="Priest of Shadow" category="71" did="1879516505" parentZoneId="1879513801" longitude="50.938515" latitude="57.769608"/>
<marker id="1609118019" label="Idagâl Slaughterer" category="71" did="1879512742" parentZoneId="1879513801" longitude="50.835896" latitude="57.848965"/>
<marker id="1609118020" label="Ordâkhai Cat-keeper" category="71" did="1879512901" parentZoneId="1879513801" longitude="50.835896" latitude="57.848965"/>
<marker id="1609118021" label="Idagâl Obliterator" category="71" did="1879512741" parentZoneId="1879513801" longitude="50.835896" latitude="57.848965"/>
<marker id="1609118022" label="Idagâl Devastator" category="71" did="1879512739" parentZoneId="1879513801" longitude="50.835896" latitude="57.848965"/>
<marker id="1609118023" label="Ordâkhai Warrior" category="71" did="1879512898" parentZoneId="1879513801" longitude="50.835896" latitude="57.848965"/>
<marker id="1609118024" label="Ordâkhai Look-out" category="71" did="1879512911" parentZoneId="1879513801" longitude="50.835896" latitude="57.848965"/>
<marker id="1609118025" label="Ordâkhai Champion" category="71" did="1879512906" parentZoneId="1879513801" longitude="50.835896" latitude="57.848965"/>
<marker id="1609118026" label="Royal Guard" category="71" did="1879516490" parentZoneId="1879513801" longitude="50.835896" latitude="57.848965"/>
<marker id="1609118027" label="Emax Dûl Sentry" category="71" did="1879516503" parentZoneId="1879513801" longitude="50.835896" latitude="57.848965"/>
<marker id="1609118028" label="Ordâkhai Sorceress" category="71" did="1879513302" parentZoneId="1879513801" longitude="50.835896" latitude="57.848965"/>
<marker id="1609118029" label="Emax Dûl Guard" category="71" did="1879516497" parentZoneId="1879513801" longitude="50.835896" latitude="57.848965"/>
<marker id="1609118030" label="Ordâkhai Bóro" category="71" did="1879513297" parentZoneId="1879513801" longitude="50.835896" latitude="57.848965"/>
<marker id="1609118031" label="Ordâkhai Sorcerer" category="71" did="1879512912" parentZoneId="1879513801" longitude="50.835896" latitude="57.848965"/>
<marker id="1609118032" label="Priestess of Command" category="71" did="1879516507" parentZoneId="1879513801" longitude="50.835896" latitude="57.848965"/>
<marker id="1609118033" label="Ordâkhai Bóro" category="71" did="1879512889" parentZoneId="1879513801" longitude="50.835896" latitude="57.848965"/>
<marker id="1609118034" label="Priest of Shadow" category="71" did="1879516505" parentZoneId="1879513801" longitude="50.835896" latitude="57.848965"/>
<marker id="1609118035" label="Idagâl Slaughterer" category="71" did="1879512742" parentZoneId="1879513801" longitude="50.754997" latitude="58.00496"/>
<marker id="1609118036" label="Ordâkhai Cat-keeper" category="71" did="1879512901" parentZoneId="1879513801" longitude="50.754997" latitude="58.00496"/>
<marker id="1609118037" label="Idagâl Obliterator" category="71" did="1879512741" parentZoneId="1879513801" longitude="50.754997" latitude="58.00496"/>
<marker id="1609118038" label="Idagâl Devastator" category="71" did="1879512739" parentZoneId="1879513801" longitude="50.754997" latitude="58.00496"/>
<marker id="1609118039" label="Ordâkhai Warrior" category="71" did="1879512898" parentZoneId="1879513801" longitude="50.754997" latitude="58.00496"/>
<marker id="1609118040" label="Ordâkhai Look-out" category="71" did="1879512911" parentZoneId="1879513801" longitude="50.754997" latitude="58.00496"/>
<marker id="1609118041" label="Ordâkhai Champion" category="71" did="1879512906" parentZoneId="1879513801" longitude="50.754997" latitude="58.00496"/>
<marker id="1609118042" label="Royal Guard" category="71" did="1879516490" parentZoneId="1879513801" longitude="50.754997" latitude="58.00496"/>
<marker id="1609118043" label="Emax Dûl Sentry" category="71" did="1879516503" parentZoneId="1879513801" longitude="50.754997" latitude="58.00496"/>
<marker id="1609118044" label="Ordâkhai Sorceress" category="71" did="1879513302" parentZoneId="1879513801" longitude="50.754997" latitude="58.00496"/>
<marker id="1609118045" label="Emax Dûl Guard" category="71" did="1879516497" parentZoneId="1879513801" longitude="50.754997" latitude="58.00496"/>
<marker id="1609118046" label="Ordâkhai Bóro" category="71" did="1879513297" parentZoneId="1879513801" longitude="50.754997" latitude="58.00496"/>
<marker id="1609118047" label="Ordâkhai Sorcerer" category="71" did="1879512912" parentZoneId="1879513801" longitude="50.754997" latitude="58.00496"/>
<marker id="1609118048" label="Priestess of Command" category="71" did="1879516507" parentZoneId="1879513801" longitude="50.754997" latitude="58.00496"/>
<marker id="1609118049" label="Ordâkhai Bóro" category="71" did="1879512889" parentZoneId="1879513801" longitude="50.754997" latitude="58.00496"/>
<marker id="1609118050" label="Priest of Shadow" category="71" did="1879516505" parentZoneId="1879513801" longitude="50.754997" latitude="58.00496"/>
<marker id="1609118051" label="Idagâl Slaughterer" category="71" did="1879512742" parentZoneId="1879513801" longitude="50.219276" latitude="57.542927"/>
<marker id="1609118052" label="Ordâkhai Cat-keeper" category="71" did="1879512901" parentZoneId="1879513801" longitude="50.219276" latitude="57.542927"/>
<marker id="1609118053" label="Idagâl Obliterator" category="71" did="1879512741" parentZoneId="1879513801" longitude="50.219276" latitude="57.542927"/>
<marker id="1609118054" label="Idagâl Devastator" category="71" did="1879512739" parentZoneId="1879513801" longitude="50.219276" latitude="57.542927"/>
<marker id="1609118055" label="Ordâkhai Warrior" category="71" did="1879512898" parentZoneId="1879513801" longitude="50.219276" latitude="57.542927"/>
<marker id="1609118056" label="Ordâkhai Look-out" category="71" did="1879512911" parentZoneId="1879513801" longitude="50.219276" latitude="57.542927"/>
<marker id="1609118057" label="Ordâkhai Champion" category="71" did="1879512906" parentZoneId="1879513801" longitude="50.219276" latitude="57.542927"/>
<marker id="1609118058" label="Royal Guard" category="71" did="1879516490" parentZoneId="1879513801" longitude="50.219276" latitude="57.542927"/>
<marker id="1609118059" label="Emax Dûl Sentry" category="71" did="1879516503" parentZoneId="1879513801" longitude="50.219276" latitude="57.542927"/>
<marker id="1609118060" label="Ordâkhai Sorceress" category="71" did="1879513302" parentZoneId="1879513801" longitude="50.219276" latitude="57.542927"/>
<marker id="1609118061" label="Emax Dûl Guard" category="71" did="1879516497" parentZoneId="1879513801" longitude="50.219276" latitude="57.542927"/>
<marker id="1609118062" label="Ordâkhai Bóro" category="71" did="1879513297" parentZoneId="1879513801" longitude="50.219276" latitude="57.542927"/>
<marker id="1609118063" label="Ordâkhai Sorcerer" category="71" did="1879512912" parentZoneId="1879513801" longitude="50.219276" latitude="57.542927"/>
<marker id="1609118064" label="Priestess of Command" category="71" did="1879516507" parentZoneId="1879513801" longitude="50.219276" latitude="57.542927"/>
<marker id="1609118065" label="Ordâkhai Bóro" category="71" did="1879512889" parentZoneId="1879513801" longitude="50.219276" latitude="57.542927"/>
<marker id="1609118066" label="Priest of Shadow" category="71" did="1879516505" parentZoneId="1879513801" longitude="50.219276" latitude="57.542927"/>
<marker id="1609125898" label="Door" category="100" did="1879497035" parentZoneId="1879513800" longitude="49.27455" latitude="59.644802"/>
<marker id="1609125899" label="Door" category="100" did="1879497035" parentZoneId="1879513800" longitude="50.734627" latitude="59.497616"/>
<marker id="1609125900" label="Door" category="100" did="1879497035" parentZoneId="1879513800" longitude="49.97916" latitude="59.496796"/>
<marker id="1609125906" label="Door" category="100" did="1879497038" parentZoneId="1879513800" longitude="48.974724" latitude="60.322598"/>
<marker id="1609125907" label="Door" category="100" did="1879497035" parentZoneId="1879513800" longitude="49.77535" latitude="59.460155"/>
<marker id="1609125908" label="Esh Mêkag Guard" category="71" did="1879516491" parentZoneId="1879513800" longitude="48.971893" latitude="60.28033"/>
<marker id="1609125909" label="Esh Mêkag Torturer" category="71" did="1879516502" parentZoneId="1879513800" longitude="48.971893" latitude="60.28033"/>
<marker id="1609125910" label="Esh Mêkag Sentry" category="71" did="1879516500" parentZoneId="1879513800" longitude="48.971893" latitude="60.28033"/>
<marker id="1609125912" label="Imprisoned Thrall" category="70" did="1879517817" parentZoneId="1879513800" longitude="50.972557" latitude="59.40953"/>
<marker id="1609125913" label="Imprisoned Thrall" category="70" did="1879517817" parentZoneId="1879513800" longitude="49.471893" latitude="59.558926"/>
<marker id="1609125914" label="Imprisoned Thrall" category="70" did="1879517817" parentZoneId="1879513800" longitude="50.971817" latitude="59.55494"/>
<marker id="1609125915" label="Imprisoned Thrall" category="70" did="1879517817" parentZoneId="1879513800" longitude="49.848007" latitude="59.275505"/>
<marker id="1609125916" label="Imprisoned Thrall" category="70" did="1879517817" parentZoneId="1879513800" longitude="50.77373" latitude="59.40217"/>
<marker id="1609125917" label="Imprisoned Thrall" category="70" did="1879517817" parentZoneId="1879513800" longitude="49.69201" latitude="59.28865"/>
<marker id="1609125918" label="Imprisoned Thrall" category="70" did="1879517816" parentZoneId="1879513800" longitude="50.266716" latitude="59.415974"/>
<marker id="1609125919" label="Imprisoned Thrall" category="70" did="1879517816" parentZoneId="1879513800" longitude="50.770233" latitude="59.579823"/>
<marker id="1609125920" label="Imprisoned Thrall" category="70" did="1879517816" parentZoneId="1879513800" longitude="50.182888" latitude="59.574314"/>
<marker id="1609125921" label="Imprisoned Thrall" category="70" did="1879517816" parentZoneId="1879513800" longitude="50.377323" latitude="59.573475"/>
<marker id="1609125922" label="Esh Mêkag Overseer" category="71" did="1879518710" parentZoneId="1879513800" longitude="48.971893" latitude="60.28033"/>
<marker id="1609125923" label="Esh Mêkag Overseer" category="71" did="1879518710" parentZoneId="1879513800" longitude="50.275272" latitude="59.418007"/>
<marker id="1609125924" label="Esh Mêkag Overseer" category="71" did="1879518710" parentZoneId="1879513800" longitude="49.470486" latitude="59.549023"/>
<marker id="1609125925" label="Esh Mêkag Overseer" category="71" did="1879518710" parentZoneId="1879513800" longitude="48.96447" latitude="60.08029"/>
<marker id="1609125926" label="Esh Mêkag Overseer" category="71" did="1879518710" parentZoneId="1879513800" longitude="50.779648" latitude="59.582733"/>
<marker id="1609125927" label="Esh Mêkag Overseer" category="71" did="1879518710" parentZoneId="1879513800" longitude="50.17863" latitude="59.56582"/>
<marker id="1609125928" label="Esh Mêkag Overseer" category="71" did="1879518710" parentZoneId="1879513800" longitude="48.97535" latitude="59.757324"/>
<marker id="1609125929" label="Esh Mêkag Overseer" category="71" did="1879518710" parentZoneId="1879513800" longitude="48.83322" latitude="59.790077"/>
<marker id="1609125930" label="Esh Mêkag Overseer" category="71" did="1879518710" parentZoneId="1879513800" longitude="49.276093" latitude="59.649315"/>
<marker id="1609125931" label="Esh Mêkag Overseer" category="71" did="1879518710" parentZoneId="1879513800" longitude="49.116444" latitude="59.80408"/>
<marker id="1609125932" label="Esh Mêkag Overseer" category="71" did="1879518710" parentZoneId="1879513800" longitude="49.11295" latitude="59.77529"/>
<marker id="1609125933" label="Esh Mêkag Overseer" category="71" did="1879518710" parentZoneId="1879513800" longitude="50.966248" latitude="59.564766"/>
<marker id="1609125934" label="Esh Mêkag Overseer" category="71" did="1879518710" parentZoneId="1879513800" longitude="49.644356" latitude="59.489197"/>
<marker id="1609125935" label="Esh Mêkag Overseer" category="71" did="1879518710" parentZoneId="1879513800" longitude="49.84738" latitude="59.285194"/>
<marker id="1609125936" label="Esh Mêkag Overseer" category="71" did="1879518710" parentZoneId="1879513800" longitude="50.487186" latitude="59.49582"/>
<marker id="1609125937" label="Esh Mêkag Overseer" category="71" did="1879518710" parentZoneId="1879513800" longitude="50.729355" latitude="59.498516"/>
<marker id="1609125938" label="Esh Mêkag Overseer" category="71" did="1879518710" parentZoneId="1879513800" longitude="50.779392" latitude="59.41119"/>
<marker id="1609125939" label="Esh Mêkag Overseer" category="71" did="1879518710" parentZoneId="1879513800" longitude="50.381054" latitude="59.56156"/>
<marker id="1609125940" label="Esh Mêkag Overseer" category="71" did="1879518710" parentZoneId="1879513800" longitude="49.69547" latitude="59.295975"/>
<marker id="1609125941" label="Esh Mêkag Overseer" category="71" did="1879518710" parentZoneId="1879513800" longitude="50.96586" latitude="59.415997"/>
<marker id="1609125942" label="Ordâkhai Bóro" category="71" did="1879512889" parentZoneId="1879513800" longitude="48.971893" latitude="60.28033"/>
<marker id="1609125943" label="Ordâkhai Cat-keeper" category="71" did="1879512901" parentZoneId="1879513800" longitude="48.971893" latitude="60.28033"/>
<marker id="1609125944" label="Ordâkhai Warrior" category="71" did="1879512898" parentZoneId="1879513800" longitude="48.971893" latitude="60.28033"/>
<marker id="1609125945" label="Ordâkhai Look-out" category="71" did="1879512911" parentZoneId="1879513800" longitude="48.971893" latitude="60.28033"/>
<marker id="1609125946" label="Ordâkhai Champion" category="71" did="1879512906" parentZoneId="1879513800" longitude="48.971893" latitude="60.28033"/>
<marker id="1609125947" label="Ordâkhai Sorcerer" category="71" did="1879512912" parentZoneId="1879513800" longitude="48.971893" latitude="60.28033"/>
<marker id="1609125948" label="Imprisoned Thrall" category="73" did="1879520193" parentZoneId="1879513800" longitude="49.47531" latitude="59.454178"/>
<marker id="1609125949" label="Imprisoned Thrall" category="73" did="1879520193" parentZoneId="1879513800" longitude="49.86369" latitude="59.302166"/>
<marker id="1609125950" label="Imprisoned Thrall" category="73" did="1879520193" parentZoneId="1879513800" longitude="49.782246" latitude="59.33943"/>
<marker id="1609125951" label="Imprisoned Thrall" category="73" did="1879520193" parentZoneId="1879513800" longitude="49.684647" latitude="59.285526"/>
<marker id="1609125952" label="Imprisoned Thrall" category="73" did="1879520193" parentZoneId="1879513800" longitude="50.1749" latitude="59.537674"/>
<marker id="1609125953" label="Imprisoned Thrall" category="73" did="1879520193" parentZoneId="1879513800" longitude="50.174255" latitude="59.454197"/>
<marker id="1609125954" label="Imprisoned Thrall" category="73" did="1879520193" parentZoneId="1879513800" longitude="50.275505" latitude="59.53494"/>
<marker id="1609125955" label="Imprisoned Thrall" category="73" did="1879520193" parentZoneId="1879513800" longitude="50.273357" latitude="59.448437"/>
<marker id="1609125956" label="Imprisoned Thrall" category="73" did="1879520193" parentZoneId="1879513800" longitude="50.376247" latitude="59.53535"/>
<marker id="1609125957" label="Imprisoned Thrall" category="73" did="1879520193" parentZoneId="1879513800" longitude="50.373123" latitude="59.44701"/>
<marker id="1609125958" label="Imprisoned Thrall" category="73" did="1879520193" parentZoneId="1879513800" longitude="50.985115" latitude="59.427303"/>
<marker id="1609125959" label="Imprisoned Thrall" category="73" did="1879520193" parentZoneId="1879513800" longitude="50.75625" latitude="59.413845"/>
<marker id="1609125960" label="Imprisoned Thrall" category="73" did="1879520193" parentZoneId="1879513800" longitude="50.98482" latitude="59.581055"/>
<marker id="1609125961" label="Imprisoned Thrall" category="73" did="1879520193" parentZoneId="1879513800" longitude="50.75633" latitude="59.58324"/>
<marker id="1609125962" label="Imprisoned Thrall" category="73" did="1879520193" parentZoneId="1879513800" longitude="49.47652" latitude="59.53658"/>
<marker id="1609125963" label="Door" category="100" did="1879497038" parentZoneId="1879513800" longitude="48.97488" latitude="60.322224"/>
<marker id="1609125964" label="Ratúlko the Bloody" category="71" did="1879516495" parentZoneId="1879513800" longitude="50.91176" latitude="59.5033"/>
<marker id="1609125969" label="Call Ebuzâm" category="73" did="1879519308" parentZoneId="1879513800" longitude="48.98662" latitude="60.276775"/>
<marker id="1609125971" label="Esh Mêkag Guard" category="71" did="1879516491" parentZoneId="1879513800" longitude="50.74592" latitude="59.492126"/>
<marker id="1609125972" label="Esh Mêkag Guard" category="71" did="1879516491" parentZoneId="1879513800" longitude="50.74254" latitude="59.503105"/>
<marker id="1609125973" label="Esh Mêkag Guard" category="71" did="1879516491" parentZoneId="1879513800" longitude="48.838436" latitude="59.781914"/>
<marker id="1609125974" label="Esh Mêkag Guard" category="71" did="1879516491" parentZoneId="1879513800" longitude="48.838123" latitude="59.79992"/>
<marker id="1609125975" label="Esh Mêkag Guard" category="71" did="1879516491" parentZoneId="1879513800" longitude="50.715527" latitude="59.498085"/>
<marker id="1609125976" label="Esh Mêkag Guard" category="71" did="1879516491" parentZoneId="1879513800" longitude="49.276814" latitude="59.57797"/>
<marker id="1609125977" label="Esh Mêkag Guard" category="71" did="1879516491" parentZoneId="1879513800" longitude="48.98166" latitude="59.969746"/>
<marker id="1609125978" label="Esh Mêkag Guard" category="71" did="1879516491" parentZoneId="1879513800" longitude="50.870937" latitude="59.605526"/>
<marker id="1609125979" label="Esh Mêkag Guard" category="71" did="1879516491" parentZoneId="1879513800" longitude="48.99285" latitude="60.072968"/>
<marker id="1609125980" label="Esh Mêkag Guard" category="71" did="1879516491" parentZoneId="1879513800" longitude="48.95754" latitude="60.07084"/>
<marker id="1609125981" label="Esh Mêkag Guard" category="71" did="1879516491" parentZoneId="1879513800" longitude="50.878437" latitude="59.389336"/>
<marker id="1609125982" label="Esh Mêkag Guard" category="71" did="1879516491" parentZoneId="1879513800" longitude="50.21234" latitude="59.48574"/>
<marker id="1609125983" label="Esh Mêkag Guard" category="71" did="1879516491" parentZoneId="1879513800" longitude="50.211815" latitude="59.506462"/>
<marker id="1609125984" label="Esh Mêkag Guard" category="71" did="1879516491" parentZoneId="1879513800" longitude="48.982693" latitude="59.75695"/>
<marker id="1609125985" label="Esh Mêkag Guard" category="71" did="1879516491" parentZoneId="1879513800" longitude="48.968708" latitude="59.757225"/>
<marker id="1609125986" label="Esh Mêkag Torturer" category="71" did="1879516502" parentZoneId="1879513800" longitude="49.78607" latitude="59.24006"/>
<marker id="1609125987" label="Esh Mêkag Torturer" category="71" did="1879516502" parentZoneId="1879513800" longitude="49.856445" latitude="59.301678"/>
<marker id="1609125988" label="Esh Mêkag Torturer" category="71" did="1879516502" parentZoneId="1879513800" longitude="49.68904" latitude="59.293045"/>
<marker id="1609125989" label="Esh Mêkag Torturer" category="71" did="1879516502" parentZoneId="1879513800" longitude="49.036247" latitude="60.087303"/>
<marker id="1609125990" label="Esh Mêkag Torturer" category="71" did="1879516502" parentZoneId="1879513800" longitude="49.781075" latitude="59.331055"/>
<marker id="1609125991" label="Esh Mêkag Torturer" category="71" did="1879516502" parentZoneId="1879513800" longitude="50.872383" latitude="59.39084"/>
<marker id="1609125992" label="Esh Mêkag Torturer" category="71" did="1879516502" parentZoneId="1879513800" longitude="48.920994" latitude="60.08615"/>
<marker id="1609125993" label="Esh Mêkag Sentry" category="71" did="1879516500" parentZoneId="1879513800" longitude="48.878143" latitude="59.803886"/>
<marker id="1609125994" label="Esh Mêkag Sentry" category="71" did="1879516500" parentZoneId="1879513800" longitude="49.0358" latitude="60.07744"/>
<marker id="1609125995" label="Esh Mêkag Sentry" category="71" did="1879516500" parentZoneId="1879513800" longitude="50.879433" latitude="59.606247"/>
<marker id="1609125996" label="Phardâli Ink-fingers" category="70" did="1879515346" parentZoneId="1879513800" longitude="49.78658" latitude="59.2332"/>
<marker id="1609125997" label="Ebuzâm" category="71" did="1879516513" parentZoneId="1879513800" longitude="50.860176" latitude="59.494003"/>
<marker id="1609125998" label="Freed Thrall" category="71" did="1879516512" parentZoneId="1879513800" longitude="50.762558" latitude="59.577362"/>
<marker id="1609125999" label="Freed Thrall" category="71" did="1879516512" parentZoneId="1879513800" longitude="50.97957" latitude="59.57574"/>
<marker id="1609126000" label="Freed Thrall" category="71" did="1879516512" parentZoneId="1879513800" longitude="50.97801" latitude="59.421055"/>
<marker id="1609126001" label="Freed Thrall" category="71" did="1879516512" parentZoneId="1879513800" longitude="50.761326" latitude="59.41959"/>
<marker id="1609126002" label="Ordâkhai Weapons" category="73" did="1879520173" parentZoneId="1879513800" longitude="49.24373" latitude="59.659782"/>
<marker id="1609126003" label="Ordâkhai Weapons" category="73" did="1879520173" parentZoneId="1879513800" longitude="49.19711" latitude="59.67203"/>
<marker id="1609126004" label="Ordâkhai Weapons" category="73" did="1879520173" parentZoneId="1879513800" longitude="49.152714" latitude="59.672947"/>
<marker id="1609126005" label="Freed Thrall" category="71" did="1879516523" parentZoneId="1879513800" longitude="50.763416" latitude="59.584217"/>
<marker id="1609126006" label="Freed Thrall" category="71" did="1879516523" parentZoneId="1879513800" longitude="50.979042" latitude="59.582382"/>
<marker id="1609126007" label="Freed Thrall" category="71" did="1879516523" parentZoneId="1879513800" longitude="50.978924" latitude="59.428123"/>
<marker id="1609126008" label="Freed Thrall" category="71" did="1879516523" parentZoneId="1879513800" longitude="50.761776" latitude="59.412342"/>
<marker id="1609126009" label="Lever" category="100" did="1879356150" parentZoneId="1879513800" longitude="50.259785" latitude="59.46"/>
<marker id="1609126010" label="Lever" category="100" did="1879356150" parentZoneId="1879513800" longitude="50.3625" latitude="59.523396"/>
<marker id="1609126011" label="Lever" category="100" did="1879356150" parentZoneId="1879513800" longitude="49.4882" latitude="59.52377"/>
<marker id="1609126012" label="Lever" category="100" did="1879356150" parentZoneId="1879513800" longitude="50.161247" latitude="59.465565"/>
<marker id="1609126013" label="Lever" category="100" did="1879356150" parentZoneId="1879513800" longitude="49.488007" latitude="59.47037"/>
<marker id="1609126014" label="Lever" category="100" did="1879356150" parentZoneId="1879513800" longitude="50.185467" latitude="59.523396"/>
<marker id="1609126015" label="Lever" category="100" did="1879356150" parentZoneId="1879513800" longitude="50.361015" latitude="59.45965"/>
<marker id="1609126016" label="Lever" category="100" did="1879356150" parentZoneId="1879513800" longitude="50.26209" latitude="59.52342"/>
<marker id="1609126017" label="Portcullis" category="100" did="1879502525" parentZoneId="1879513800" longitude="49.775547" latitude="59.460075"/>
<marker id="1609126018" label="Portcullis" category="100" did="1879502525" parentZoneId="1879513800" longitude="49.475975" latitude="59.5299"/>
<marker id="1609126019" label="Portcullis" category="100" did="1879502525" parentZoneId="1879513800" longitude="49.475662" latitude="59.460293"/>
<marker id="1609126020" label="Portcullis" category="100" did="1879502525" parentZoneId="1879513800" longitude="50.374023" latitude="59.454334"/>
<marker id="1609126021" label="Portcullis" category="100" did="1879502525" parentZoneId="1879513800" longitude="49.80916" latitude="59.496365"/>
<marker id="1609126022" label="Portcullis" category="100" did="1879502525" parentZoneId="1879513800" longitude="49.273144" latitude="59.646774"/>
<marker id="1609126023" label="Portcullis" category="100" did="1879502525" parentZoneId="1879513800" longitude="50.37623" latitude="59.52914"/>
<marker id="1609126024" label="Portcullis" category="100" did="1879502525" parentZoneId="1879513800" longitude="50.51367" latitude="59.496426"/>
<marker id="1609126025" label="Portcullis" category="100" did="1879502525" parentZoneId="1879513800" longitude="50.17465" latitude="59.46037"/>
<marker id="1609126026" label="Portcullis" category="100" did="1879502525" parentZoneId="1879513800" longitude="50.173748" latitude="59.528534"/>
<marker id="1609126027" label="Portcullis" category="100" did="1879502525" parentZoneId="1879513800" longitude="48.974415" latitude="59.95799"/>
<marker id="1609126028" label="Portcullis" category="100" did="1879502525" parentZoneId="1879513800" longitude="50.274002" latitude="59.453083"/>
<marker id="1609126029" label="Portcullis" category="100" did="1879502525" parentZoneId="1879513800" longitude="50.275703" latitude="59.52963"/>
<marker id="1609126030" label="Góramul Sai" category="70" did="1879515322" parentZoneId="1879513800" longitude="50.912693" latitude="59.48834"/>
<marker id="1609126031" label="Imprisoned Thrall" category="70" did="1879517817" parentZoneId="1879513800" longitude="50.275116" latitude="59.53539"/>
<marker id="1609126032" label="Imprisoned Thrall" category="70" did="1879517817" parentZoneId="1879513800" longitude="50.985134" latitude="59.427246"/>
<marker id="1609126033" label="Imprisoned Thrall" category="70" did="1879517817" parentZoneId="1879513800" longitude="50.37375" latitude="59.447655"/>
<marker id="1609126034" label="Imprisoned Thrall" category="70" did="1879517817" parentZoneId="1879513800" longitude="50.27273" latitude="59.44914"/>
<marker id="1609126035" label="Imprisoned Thrall" category="70" did="1879517817" parentZoneId="1879513800" longitude="50.98502" latitude="59.580994"/>
<marker id="1609126036" label="Imprisoned Thrall" category="70" did="1879517817" parentZoneId="1879513800" longitude="50.37699" latitude="59.535583"/>
<marker id="1609126037" label="Imprisoned Thrall" category="70" did="1879517817" parentZoneId="1879513800" longitude="50.755665" latitude="59.58326"/>
<marker id="1609126038" label="Imprisoned Thrall" category="70" did="1879517817" parentZoneId="1879513800" longitude="50.17406" latitude="59.45453"/>
<marker id="1609126039" label="Imprisoned Thrall" category="70" did="1879517817" parentZoneId="1879513800" longitude="50.174335" latitude="59.536697"/>
<marker id="1609126040" label="Imprisoned Thrall" category="70" did="1879517817" parentZoneId="1879513800" longitude="49.863945" latitude="59.301834"/>
<marker id="1609126041" label="Imprisoned Thrall" category="70" did="1879517817" parentZoneId="1879513800" longitude="49.782284" latitude="59.33912"/>
<marker id="1609126042" label="Imprisoned Thrall" category="70" did="1879517817" parentZoneId="1879513800" longitude="49.475742" latitude="59.535877"/>
<marker id="1609126043" label="Imprisoned Thrall" category="70" did="1879517817" parentZoneId="1879513800" longitude="49.684803" latitude="59.28547"/>
<marker id="1609126044" label="Imprisoned Thrall" category="70" did="1879517817" parentZoneId="1879513800" longitude="50.75484" latitude="59.414196"/>
<marker id="1609126045" label="Imprisoned Thrall" category="70" did="1879517817" parentZoneId="1879513800" longitude="49.47533" latitude="59.454803"/>
<marker id="1609126046" label="Imprisoned Thrall" category="70" did="1879517816" parentZoneId="1879513800" longitude="50.36824" latitude="59.44045"/>
<marker id="1609126047" label="Imprisoned Thrall" category="70" did="1879517816" parentZoneId="1879513800" longitude="49.48047" latitude="59.450233"/>
<marker id="1609126048" label="Imprisoned Thrall" category="70" did="1879517816" parentZoneId="1879513800" longitude="50.269375" latitude="59.542187"/>
<marker id="1609126049" label="Imprisoned Thrall" category="70" did="1879517816" parentZoneId="1879513800" longitude="50.985134" latitude="59.421776"/>
<marker id="1609126050" label="Imprisoned Thrall" category="70" did="1879517816" parentZoneId="1879513800" longitude="50.377792" latitude="59.436638"/>
<marker id="1609126051" label="Imprisoned Thrall" category="70" did="1879517816" parentZoneId="1879513800" longitude="50.2816" latitude="59.539764"/>
<marker id="1609126052" label="Imprisoned Thrall" category="70" did="1879517816" parentZoneId="1879513800" longitude="50.985077" latitude="59.576424"/>
<marker id="1609126053" label="Imprisoned Thrall" category="70" did="1879517816" parentZoneId="1879513800" longitude="50.370876" latitude="59.54043"/>
<marker id="1609126054" label="Imprisoned Thrall" category="70" did="1879517816" parentZoneId="1879513800" longitude="50.268204" latitude="59.442127"/>
<marker id="1609126055" label="Imprisoned Thrall" category="70" did="1879517816" parentZoneId="1879513800" longitude="50.755196" latitude="59.578396"/>
<marker id="1609126056" label="Imprisoned Thrall" category="70" did="1879517816" parentZoneId="1879513800" longitude="50.278553" latitude="59.445915"/>
<marker id="1609126057" label="Imprisoned Thrall" category="70" did="1879517816" parentZoneId="1879513800" longitude="50.38297" latitude="59.542656"/>
<marker id="1609126058" label="Imprisoned Thrall" category="70" did="1879517816" parentZoneId="1879513800" longitude="50.168396" latitude="59.445293"/>
<marker id="1609126059" label="Imprisoned Thrall" category="70" did="1879517816" parentZoneId="1879513800" longitude="50.1792" latitude="59.44629"/>
<marker id="1609126060" label="Imprisoned Thrall" category="70" did="1879517816" parentZoneId="1879513800" longitude="50.168945" latitude="59.54086"/>
<marker id="1609126061" label="Imprisoned Thrall" category="70" did="1879517816" parentZoneId="1879513800" longitude="50.1791" latitude="59.54076"/>
<marker id="1609126062" label="Imprisoned Thrall" category="70" did="1879517816" parentZoneId="1879513800" longitude="49.48125" latitude="59.54123"/>
<marker id="1609126063" label="Imprisoned Thrall" category="70" did="1879517816" parentZoneId="1879513800" longitude="49.469765" latitude="59.542927"/>
<marker id="1609126064" label="Imprisoned Thrall" category="70" did="1879517816" parentZoneId="1879513800" longitude="49.469646" latitude="59.446934"/>
<marker id="1609126065" label="Imprisoned Thrall" category="70" did="1879517816" parentZoneId="1879513800" longitude="50.75469" latitude="59.419235"/>
<marker id="1609126066" label="Esh Mêkag Prison" category="74" did="1879518716" parentZoneId="1879513800" longitude="48.97543" latitude="60.289314"/>
<marker id="1609126067" label="Esh Mêkag Prison" category="74" did="1879518716" parentZoneId="1879513800" longitude="48.973747" latitude="59.777477"/>
<marker id="1609126068" label="Esh Mêkag Prison" category="74" did="1879518716" parentZoneId="1879513800" longitude="49.480938" latitude="59.49793"/>
<marker id="1609126069" label="Esh Mêkag Prison" category="74" did="1879518716" parentZoneId="1879513800" longitude="50.046932" latitude="59.496677"/>
<marker id="1609126070" label="Esh Mêkag Prison" category="74" did="1879518716" parentZoneId="1879513800" longitude="50.620937" latitude="59.497772"/>
<marker id="1609126071" label="Warden Khusóku" category="71" did="1879516504" parentZoneId="1879513800" longitude="50.91244" latitude="59.496914"/>
<marker id="1609126074" label="Binding Chains" category="73" did="1879517582" parentZoneId="1879513800" longitude="50.755547" latitude="59.57703"/>
<marker id="1609126075" label="Binding Chains" category="73" did="1879517582" parentZoneId="1879513800" longitude="50.98492" latitude="59.582478"/>
<marker id="1609126076" label="Binding Chains" category="73" did="1879517582" parentZoneId="1879513800" longitude="50.984333" latitude="59.428436"/>
<marker id="1609126077" label="Binding Chains" category="73" did="1879517582" parentZoneId="1879513800" longitude="50.755665" latitude="59.413338"/>
<marker id="1609126080" label="Ebuzâm" category="70" did="1879515339" parentZoneId="1879513800" longitude="48.98586" latitude="60.29051"/>
<marker id="1609126081" label="Esh Mêkag Torturer" category="71" did="1879516502" parentZoneId="1879513800" longitude="48.988865" latitude="60.08451"/>
<marker id="1609126082" label="Esh Mêkag Overseer" category="71" did="1879518710" parentZoneId="1879513800" longitude="48.988865" latitude="60.08451"/>
<marker id="1609126083" label="Ordâkhai Cat-keeper" category="71" did="1879512901" parentZoneId="1879513800" longitude="48.988865" latitude="60.08451"/>
<marker id="1609126084" label="Esh Mêkag Sentry" category="71" did="1879516500" parentZoneId="1879513800" longitude="48.988865" latitude="60.08451"/>
<marker id="1609126085" label="Ordâkhai Warrior" category="71" did="1879512898" parentZoneId="1879513800" longitude="48.988865" latitude="60.08451"/>
<marker id="1609126086" label="Ordâkhai Sorcerer" category="71" did="1879512912" parentZoneId="1879513800" longitude="48.988865" latitude="60.08451"/>
<marker id="1609126087" label="Ordâkhai Look-out" category="71" did="1879512911" parentZoneId="1879513800" longitude="48.988865" latitude="60.08451"/>
<marker id="1609126088" label="Esh Mêkag Guard" category="71" did="1879516491" parentZoneId="1879513800" longitude="48.988865" latitude="60.08451"/>
<marker id="1609126089" label="Ordâkhai Champion" category="71" did="1879512906" parentZoneId="1879513800" longitude="48.988865" latitude="60.08451"/>
<marker id="1609126090" label="Ordâkhai Bóro" category="71" did="1879512889" parentZoneId="1879513800" longitude="48.988865" latitude="60.08451"/>
<marker id="1609126091" label="Esh Mêkag Torturer" category="71" did="1879516502" parentZoneId="1879513800" longitude="48.905468" latitude="60.0958"/>
<marker id="1609126092" label="Esh Mêkag Overseer" category="71" did="1879518710" parentZoneId="1879513800" longitude="48.905468" latitude="60.0958"/>
<marker id="1609126093" label="Ordâkhai Cat-keeper" category="71" did="1879512901" parentZoneId="1879513800" longitude="48.905468" latitude="60.0958"/>
<marker id="1609126094" label="Esh Mêkag Sentry" category="71" did="1879516500" parentZoneId="1879513800" longitude="48.905468" latitude="60.0958"/>
<marker id="1609126095" label="Ordâkhai Warrior" category="71" did="1879512898" parentZoneId="1879513800" longitude="48.905468" latitude="60.0958"/>
<marker id="1609126096" label="Ordâkhai Sorcerer" category="71" did="1879512912" parentZoneId="1879513800" longitude="48.905468" latitude="60.0958"/>
<marker id="1609126097" label="Ordâkhai Look-out" category="71" did="1879512911" parentZoneId="1879513800" longitude="48.905468" latitude="60.0958"/>
<marker id="1609126098" label="Esh Mêkag Guard" category="71" did="1879516491" parentZoneId="1879513800" longitude="48.905468" latitude="60.0958"/>
<marker id="1609126099" label="Ordâkhai Champion" category="71" did="1879512906" parentZoneId="1879513800" longitude="48.905468" latitude="60.0958"/>
<marker id="1609126100" label="Ordâkhai Bóro" category="71" did="1879512889" parentZoneId="1879513800" longitude="48.905468" latitude="60.0958"/>
<marker id="1609126101" label="Esh Mêkag Torturer" category="71" did="1879516502" parentZoneId="1879513800" longitude="48.91318" latitude="60.061054"/>
<marker id="1609126102" label="Esh Mêkag Overseer" category="71" did="1879518710" parentZoneId="1879513800" longitude="48.91318" latitude="60.061054"/>
<marker id="1609126103" label="Ordâkhai Cat-keeper" category="71" did="1879512901" parentZoneId="1879513800" longitude="48.91318" latitude="60.061054"/>
<marker id="1609126104" label="Esh Mêkag Sentry" category="71" did="1879516500" parentZoneId="1879513800" longitude="48.91318" latitude="60.061054"/>
<marker id="1609126105" label="Ordâkhai Warrior" category="71" did="1879512898" parentZoneId="1879513800" longitude="48.91318" latitude="60.061054"/>
<marker id="1609126106" label="Ordâkhai Sorcerer" category="71" did="1879512912" parentZoneId="1879513800" longitude="48.91318" latitude="60.061054"/>
<marker id="1609126107" label="Ordâkhai Look-out" category="71" did="1879512911" parentZoneId="1879513800" longitude="48.91318" latitude="60.061054"/>
<marker id="1609126108" label="Esh Mêkag Guard" category="71" did="1879516491" parentZoneId="1879513800" longitude="48.91318" latitude="60.061054"/>
<marker id="1609126109" label="Ordâkhai Champion" category="71" did="1879512906" parentZoneId="1879513800" longitude="48.91318" latitude="60.061054"/>
<marker id="1609126110" label="Ordâkhai Bóro" category="71" did="1879512889" parentZoneId="1879513800" longitude="48.91318" latitude="60.061054"/>
<marker id="1609126111" label="Esh Mêkag Torturer" category="71" did="1879516502" parentZoneId="1879513800" longitude="48.924725" latitude="60.00625"/>
<marker id="1609126112" label="Esh Mêkag Overseer" category="71" did="1879518710" parentZoneId="1879513800" longitude="48.924725" latitude="60.00625"/>
<marker id="1609126113" label="Ordâkhai Cat-keeper" category="71" did="1879512901" parentZoneId="1879513800" longitude="48.924725" latitude="60.00625"/>
<marker id="1609126114" label="Esh Mêkag Sentry" category="71" did="1879516500" parentZoneId="1879513800" longitude="48.924725" latitude="60.00625"/>
<marker id="1609126115" label="Ordâkhai Warrior" category="71" did="1879512898" parentZoneId="1879513800" longitude="48.924725" latitude="60.00625"/>
<marker id="1609126116" label="Ordâkhai Sorcerer" category="71" did="1879512912" parentZoneId="1879513800" longitude="48.924725" latitude="60.00625"/>
<marker id="1609126117" label="Ordâkhai Look-out" category="71" did="1879512911" parentZoneId="1879513800" longitude="48.924725" latitude="60.00625"/>
<marker id="1609126118" label="Esh Mêkag Guard" category="71" did="1879516491" parentZoneId="1879513800" longitude="48.924725" latitude="60.00625"/>
<marker id="1609126119" label="Ordâkhai Champion" category="71" did="1879512906" parentZoneId="1879513800" longitude="48.924725" latitude="60.00625"/>
<marker id="1609126120" label="Ordâkhai Bóro" category="71" did="1879512889" parentZoneId="1879513800" longitude="48.924725" latitude="60.00625"/>
<marker id="1609126121" label="Esh Mêkag Torturer" category="71" did="1879516502" parentZoneId="1879513800" longitude="48.892967" latitude="60.02086"/>
<marker id="1609126122" label="Esh Mêkag Overseer" category="71" did="1879518710" parentZoneId="1879513800" longitude="48.892967" latitude="60.02086"/>
<marker id="1609126123" label="Ordâkhai Cat-keeper" category="71" did="1879512901" parentZoneId="1879513800" longitude="48.892967" latitude="60.02086"/>
<marker id="1609126124" label="Esh Mêkag Sentry" category="71" did="1879516500" parentZoneId="1879513800" longitude="48.892967" latitude="60.02086"/>
<marker id="1609126125" label="Ordâkhai Warrior" category="71" did="1879512898" parentZoneId="1879513800" longitude="48.892967" latitude="60.02086"/>
<marker id="1609126126" label="Ordâkhai Sorcerer" category="71" did="1879512912" parentZoneId="1879513800" longitude="48.892967" latitude="60.02086"/>
<marker id="1609126127" label="Ordâkhai Look-out" category="71" did="1879512911" parentZoneId="1879513800" longitude="48.892967" latitude="60.02086"/>
<marker id="1609126128" label="Esh Mêkag Guard" category="71" did="1879516491" parentZoneId="1879513800" longitude="48.892967" latitude="60.02086"/>
<marker id="1609126129" label="Ordâkhai Champion" category="71" did="1879512906" parentZoneId="1879513800" longitude="48.892967" latitude="60.02086"/>
<marker id="1609126130" label="Ordâkhai Bóro" category="71" did="1879512889" parentZoneId="1879513800" longitude="48.892967" latitude="60.02086"/>
<marker id="1609126131" label="Esh Mêkag Torturer" category="71" did="1879516502" parentZoneId="1879513800" longitude="49.054314" latitude="60.079277"/>
<marker id="1609126132" label="Esh Mêkag Overseer" category="71" did="1879518710" parentZoneId="1879513800" longitude="49.054314" latitude="60.079277"/>
<marker id="1609126133" label="Ordâkhai Cat-keeper" category="71" did="1879512901" parentZoneId="1879513800" longitude="49.054314" latitude="60.079277"/>
<marker id="1609126134" label="Esh Mêkag Sentry" category="71" did="1879516500" parentZoneId="1879513800" longitude="49.054314" latitude="60.079277"/>
<marker id="1609126135" label="Ordâkhai Warrior" category="71" did="1879512898" parentZoneId="1879513800" longitude="49.054314" latitude="60.079277"/>
<marker id="1609126136" label="Ordâkhai Sorcerer" category="71" did="1879512912" parentZoneId="1879513800" longitude="49.054314" latitude="60.079277"/>
<marker id="1609126137" label="Ordâkhai Look-out" category="71" did="1879512911" parentZoneId="1879513800" longitude="49.054314" latitude="60.079277"/>
<marker id="1609126138" label="Esh Mêkag Guard" category="71" did="1879516491" parentZoneId="1879513800" longitude="49.054314" latitude="60.079277"/>
<marker id="1609126139" label="Ordâkhai Champion" category="71" did="1879512906" parentZoneId="1879513800" longitude="49.054314" latitude="60.079277"/>
<marker id="1609126140" label="Ordâkhai Bóro" category="71" did="1879512889" parentZoneId="1879513800" longitude="49.054314" latitude="60.079277"/>
<marker id="1609126141" label="Esh Mêkag Torturer" category="71" did="1879516502" parentZoneId="1879513800" longitude="49.061268" latitude="60.025234"/>
<marker id="1609126142" label="Esh Mêkag Overseer" category="71" did="1879518710" parentZoneId="1879513800" longitude="49.061268" latitude="60.025234"/>
<marker id="1609126143" label="Ordâkhai Cat-keeper" category="71" did="1879512901" parentZoneId="1879513800" longitude="49.061268" latitude="60.025234"/>
<marker id="1609126144" label="Esh Mêkag Sentry" category="71" did="1879516500" parentZoneId="1879513800" longitude="49.061268" latitude="60.025234"/>
<marker id="1609126145" label="Ordâkhai Warrior" category="71" did="1879512898" parentZoneId="1879513800" longitude="49.061268" latitude="60.025234"/>
<marker id="1609126146" label="Ordâkhai Sorcerer" category="71" did="1879512912" parentZoneId="1879513800" longitude="49.061268" latitude="60.025234"/>
<marker id="1609126147" label="Ordâkhai Look-out" category="71" did="1879512911" parentZoneId="1879513800" longitude="49.061268" latitude="60.025234"/>
<marker id="1609126148" label="Esh Mêkag Guard" category="71" did="1879516491" parentZoneId="1879513800" longitude="49.061268" latitude="60.025234"/>
<marker id="1609126149" label="Ordâkhai Champion" category="71" did="1879512906" parentZoneId="1879513800" longitude="49.061268" latitude="60.025234"/>
<marker id="1609126150" label="Ordâkhai Bóro" category="71" did="1879512889" parentZoneId="1879513800" longitude="49.061268" latitude="60.025234"/>
<marker id="1609126151" label="Esh Mêkag Torturer" category="71" did="1879516502" parentZoneId="1879513800" longitude="49.038982" latitude="60.015995"/>
<marker id="1609126152" label="Esh Mêkag Overseer" category="71" did="1879518710" parentZoneId="1879513800" longitude="49.038982" latitude="60.015995"/>
<marker id="1609126153" label="Ordâkhai Cat-keeper" category="71" did="1879512901" parentZoneId="1879513800" longitude="49.038982" latitude="60.015995"/>
<marker id="1609126154" label="Esh Mêkag Sentry" category="71" did="1879516500" parentZoneId="1879513800" longitude="49.038982" latitude="60.015995"/>
<marker id="1609126155" label="Ordâkhai Warrior" category="71" did="1879512898" parentZoneId="1879513800" longitude="49.038982" latitude="60.015995"/>
<marker id="1609126156" label="Ordâkhai Sorcerer" category="71" did="1879512912" parentZoneId="1879513800" longitude="49.038982" latitude="60.015995"/>
<marker id="1609126157" label="Ordâkhai Look-out" category="71" did="1879512911" parentZoneId="1879513800" longitude="49.038982" latitude="60.015995"/>
<marker id="1609126158" label="Esh Mêkag Guard" category="71" did="1879516491" parentZoneId="1879513800" longitude="49.038982" latitude="60.015995"/>
<marker id="1609126159" label="Ordâkhai Champion" category="71" did="1879512906" parentZoneId="1879513800" longitude="49.038982" latitude="60.015995"/>
<marker id="1609126160" label="Ordâkhai Bóro" category="71" did="1879512889" parentZoneId="1879513800" longitude="49.038982" latitude="60.015995"/>
<marker id="1609126161" label="Esh Mêkag Torturer" category="71" did="1879516502" parentZoneId="1879513800" longitude="49.011795" latitude="59.793827"/>
<marker id="1609126162" label="Esh Mêkag Overseer" category="71" did="1879518710" parentZoneId="1879513800" longitude="49.011795" latitude="59.793827"/>
<marker id="1609126163" label="Ordâkhai Cat-keeper" category="71" did="1879512901" parentZoneId="1879513800" longitude="49.011795" latitude="59.793827"/>
<marker id="1609126164" label="Esh Mêkag Sentry" category="71" did="1879516500" parentZoneId="1879513800" longitude="49.011795" latitude="59.793827"/>
<marker id="1609126165" label="Ordâkhai Warrior" category="71" did="1879512898" parentZoneId="1879513800" longitude="49.011795" latitude="59.793827"/>
<marker id="1609126166" label="Ordâkhai Sorcerer" category="71" did="1879512912" parentZoneId="1879513800" longitude="49.011795" latitude="59.793827"/>
<marker id="1609126167" label="Ordâkhai Look-out" category="71" did="1879512911" parentZoneId="1879513800" longitude="49.011795" latitude="59.793827"/>
<marker id="1609126168" label="Esh Mêkag Guard" category="71" did="1879516491" parentZoneId="1879513800" longitude="49.011795" latitude="59.793827"/>
<marker id="1609126169" label="Ordâkhai Champion" category="71" did="1879512906" parentZoneId="1879513800" longitude="49.011795" latitude="59.793827"/>
<marker id="1609126170" label="Ordâkhai Bóro" category="71" did="1879512889" parentZoneId="1879513800" longitude="49.011795" latitude="59.793827"/>
<marker id="1609126171" label="Esh Mêkag Torturer" category="71" did="1879516502" parentZoneId="1879513800" longitude="48.932087" latitude="59.791756"/>
<marker id="1609126172" label="Esh Mêkag Overseer" category="71" did="1879518710" parentZoneId="1879513800" longitude="48.932087" latitude="59.791756"/>
<marker id="1609126173" label="Ordâkhai Cat-keeper" category="71" did="1879512901" parentZoneId="1879513800" longitude="48.932087" latitude="59.791756"/>
<marker id="1609126174" label="Esh Mêkag Sentry" category="71" did="1879516500" parentZoneId="1879513800" longitude="48.932087" latitude="59.791756"/>
<marker id="1609126175" label="Ordâkhai Warrior" category="71" did="1879512898" parentZoneId="1879513800" longitude="48.932087" latitude="59.791756"/>
<marker id="1609126176" label="Ordâkhai Sorcerer" category="71" did="1879512912" parentZoneId="1879513800" longitude="48.932087" latitude="59.791756"/>
<marker id="1609126177" label="Ordâkhai Look-out" category="71" did="1879512911" parentZoneId="1879513800" longitude="48.932087" latitude="59.791756"/>
<marker id="1609126178" label="Esh Mêkag Guard" category="71" did="1879516491" parentZoneId="1879513800" longitude="48.932087" latitude="59.791756"/>
<marker id="1609126179" label="Ordâkhai Champion" category="71" did="1879512906" parentZoneId="1879513800" longitude="48.932087" latitude="59.791756"/>
<marker id="1609126180" label="Ordâkhai Bóro" category="71" did="1879512889" parentZoneId="1879513800" longitude="48.932087" latitude="59.791756"/>
<marker id="1609126181" label="Esh Mêkag Torturer" category="71" did="1879516502" parentZoneId="1879513800" longitude="48.88828" latitude="59.775723"/>
<marker id="1609126182" label="Esh Mêkag Overseer" category="71" did="1879518710" parentZoneId="1879513800" longitude="48.88828" latitude="59.775723"/>
<marker id="1609126183" label="Ordâkhai Cat-keeper" category="71" did="1879512901" parentZoneId="1879513800" longitude="48.88828" latitude="59.775723"/>
<marker id="1609126184" label="Esh Mêkag Sentry" category="71" did="1879516500" parentZoneId="1879513800" longitude="48.88828" latitude="59.775723"/>
<marker id="1609126185" label="Ordâkhai Warrior" category="71" did="1879512898" parentZoneId="1879513800" longitude="48.88828" latitude="59.775723"/>
<marker id="1609126186" label="Ordâkhai Sorcerer" category="71" did="1879512912" parentZoneId="1879513800" longitude="48.88828" latitude="59.775723"/>
<marker id="1609126187" label="Ordâkhai Look-out" category="71" did="1879512911" parentZoneId="1879513800" longitude="48.88828" latitude="59.775723"/>
<marker id="1609126188" label="Esh Mêkag Guard" category="71" did="1879516491" parentZoneId="1879513800" longitude="48.88828" latitude="59.775723"/>
<marker id="1609126189" label="Ordâkhai Champion" category="71" did="1879512906" parentZoneId="1879513800" longitude="48.88828" latitude="59.775723"/>
<marker id="1609126190" label="Ordâkhai Bóro" category="71" did="1879512889" parentZoneId="1879513800" longitude="48.88828" latitude="59.775723"/>
<marker id="1609126191" label="Esh Mêkag Torturer" category="71" did="1879516502" parentZoneId="1879513800" longitude="49.210136" latitude="59.708435"/>
<marker id="1609126192" label="Esh Mêkag Overseer" category="71" did="1879518710" parentZoneId="1879513800" longitude="49.210136" latitude="59.708435"/>
<marker id="1609126193" label="Ordâkhai Cat-keeper" category="71" did="1879512901" parentZoneId="1879513800" longitude="49.210136" latitude="59.708435"/>
<marker id="1609126194" label="Esh Mêkag Sentry" category="71" did="1879516500" parentZoneId="1879513800" longitude="49.210136" latitude="59.708435"/>
<marker id="1609126195" label="Ordâkhai Warrior" category="71" did="1879512898" parentZoneId="1879513800" longitude="49.210136" latitude="59.708435"/>
<marker id="1609126196" label="Ordâkhai Sorcerer" category="71" did="1879512912" parentZoneId="1879513800" longitude="49.210136" latitude="59.708435"/>
<marker id="1609126197" label="Ordâkhai Look-out" category="71" did="1879512911" parentZoneId="1879513800" longitude="49.210136" latitude="59.708435"/>
<marker id="1609126198" label="Esh Mêkag Guard" category="71" did="1879516491" parentZoneId="1879513800" longitude="49.210136" latitude="59.708435"/>
<marker id="1609126199" label="Ordâkhai Champion" category="71" did="1879512906" parentZoneId="1879513800" longitude="49.210136" latitude="59.708435"/>
<marker id="1609126200" label="Ordâkhai Bóro" category="71" did="1879512889" parentZoneId="1879513800" longitude="49.210136" latitude="59.708435"/>
<marker id="1609126201" label="Esh Mêkag Torturer" category="71" did="1879516502" parentZoneId="1879513800" longitude="49.183456" latitude="59.72076"/>
<marker id="1609126202" label="Esh Mêkag Overseer" category="71" did="1879518710" parentZoneId="1879513800" longitude="49.183456" latitude="59.72076"/>
<marker id="1609126203" label="Ordâkhai Cat-keeper" category="71" did="1879512901" parentZoneId="1879513800" longitude="49.183456" latitude="59.72076"/>
<marker id="1609126204" label="Esh Mêkag Sentry" category="71" did="1879516500" parentZoneId="1879513800" longitude="49.183456" latitude="59.72076"/>
<marker id="1609126205" label="Ordâkhai Warrior" category="71" did="1879512898" parentZoneId="1879513800" longitude="49.183456" latitude="59.72076"/>
<marker id="1609126206" label="Ordâkhai Sorcerer" category="71" did="1879512912" parentZoneId="1879513800" longitude="49.183456" latitude="59.72076"/>
<marker id="1609126207" label="Ordâkhai Look-out" category="71" did="1879512911" parentZoneId="1879513800" longitude="49.183456" latitude="59.72076"/>
