<?xml version="1.0" encoding="UTF-8"?><markers>
<marker id="1539170304" label="Haradrim Warrior" category="71" did="1879470982" parentZoneId="1879063919" longitude="4.486455" latitude="28.320038"/>
<marker id="1539170305" label="Mâkhda Khorbo Warrior" category="71" did="1879470983" parentZoneId="1879063919" longitude="4.6575193" latitude="28.037998"/>
<marker id="1539170306" label="Savannah Lioness" category="71" did="1879470980" parentZoneId="1879063919" longitude="4.492607" latitude="27.860409"/>
<marker id="1539170307" label="Savannah Stalker" category="71" did="1879470981" parentZoneId="1879063919" longitude="4.4695897" latitude="27.860409"/>
<marker id="1539170308" label="Umbari Wildwood" category="71" did="1879470990" parentZoneId="1879063919" longitude="4.593076" latitude="27.865536"/>
<marker id="1539170309" label="Corsair Watchman" category="71" did="1879470991" parentZoneId="1879063919" longitude="4.507744" latitude="28.277733"/>
<marker id="1539170310" label="Khûtran Spectre" category="71" did="1879470988" parentZoneId="1879063919" longitude="4.6470704" latitude="28.049717"/>
<marker id="1539170311" label="Savannah Cub" category="71" did="1879470986" parentZoneId="1879063919" longitude="4.502012" latitude="27.860409"/>
<marker id="1539170312" label="Goblin Corsair Prowler" category="71" did="1879470987" parentZoneId="1879063919" longitude="4.54124" latitude="28.203613"/>
<marker id="1539170313" label="Mâkhda Khorbo Horror" category="71" did="1879470984" parentZoneId="1879063919" longitude="4.647842" latitude="28.037998"/>
<marker id="1539170314" label="Corsair Deck-hand" category="71" did="1879470985" parentZoneId="1879063919" longitude="4.5260935" latitude="28.277733"/>
<marker id="1539170315" label="Watery Funnel" category="71" did="1879470998" parentZoneId="1879063919" longitude="4.517256" latitude="27.957"/>
<marker id="1539170316" label="Corsair Sneak" category="71" did="1879470999" parentZoneId="1879063919" longitude="4.49999" latitude="28.277733"/>
<marker id="1539170317" label="Haradrim Sorcerer" category="71" did="1879470996" parentZoneId="1879063919" longitude="4.4756837" latitude="28.320038"/>
<marker id="1539170318" label="Sea-hawk" category="71" did="1879470995" parentZoneId="1879063919" longitude="4.5823536" latitude="27.709307"/>
<marker id="1539170319" label="Corsair Raider" category="71" did="1879470992" parentZoneId="1879063919" longitude="4.5329685" latitude="28.277294"/>
<marker id="1539170320" label="Sea-hawk" category="71" did="1879470993" parentZoneId="1879063919" longitude="4.5706544" latitude="27.709307"/>
<marker id="1539170321" label="Saltwater Crocodile" category="71" did="1879471006" parentZoneId="1879063919" longitude="4.5283985" latitude="28.087772"/>
<marker id="1539170322" label="Sure-footed Ewe" category="71" did="1879471007" parentZoneId="1879063919" longitude="4.5141697" latitude="27.678955"/>
<marker id="1539170323" label="Sandstorm" category="71" did="1879471004" parentZoneId="1879063919" longitude="4.5281935" latitude="27.957"/>
<marker id="1539170324" label="Sure-stride Ewe" category="71" did="1879471005" parentZoneId="1879063919" longitude="4.4531736" latitude="27.67623"/>
<marker id="1539170325" label="Umbari Lizard" category="71" did="1879471002" parentZoneId="1879063919" longitude="4.454492" latitude="27.761806"/>
<marker id="1539170326" label="Hard-shell Crab" category="71" did="1879471003" parentZoneId="1879063919" longitude="4.521299" latitude="27.76331"/>
<marker id="1539170327" label="Chirping Neekerbreeker" category="71" did="1879471000" parentZoneId="1879063919" longitude="4.5487304" latitude="27.763397"/>
<marker id="1539170328" label="Elder Thick-hide Crocodile" category="71" did="1879471001" parentZoneId="1879063919" longitude="4.5134373" latitude="28.087772"/>
<marker id="1539170329" label="Shore Crab" category="71" did="1879471015" parentZoneId="1879063919" longitude="4.527959" latitude="27.76331"/>
<marker id="1539170330" label="Corsair Sniper" category="71" did="1879471012" parentZoneId="1879063919" longitude="4.493779" latitude="28.277733"/>
<marker id="1539170331" label="Umbari Hatchling" category="71" did="1879471013" parentZoneId="1879063919" longitude="4.6464744" latitude="28.28704"/>
<marker id="1539170332" label="Savannah Pride-mate" category="71" did="1879471010" parentZoneId="1879063919" longitude="4.461777" latitude="27.860409"/>
<marker id="1539170333" label="Goblin Corsair" category="71" did="1879471008" parentZoneId="1879063919" longitude="4.5369334" latitude="28.203613"/>
<marker id="1539170334" label="Hunter Crab" category="71" did="1879471009" parentZoneId="1879063919" longitude="4.4995117" latitude="27.76331"/>
<marker id="1539170335" label="Khûtran Darkwater" category="71" did="1879471022" parentZoneId="1879063919" longitude="4.6715236" latitude="28.049717"/>
<marker id="1539170336" label="Mâkhda Khorbo Archer" category="71" did="1879471020" parentZoneId="1879063919" longitude="4.6405954" latitude="28.037998"/>
<marker id="1539170337" label="Savannah Lion" category="71" did="1879471021" parentZoneId="1879063919" longitude="4.481777" latitude="27.860409"/>
<marker id="1539170338" label="Crawling Limb" category="71" did="1879471018" parentZoneId="1879063919" longitude="4.6329684" latitude="28.045204"/>
<marker id="1539170339" label="Haradrim Archer" category="71" did="1879471019" parentZoneId="1879063919" longitude="4.508027" latitude="28.320038"/>
<marker id="1539170340" label="Umbari Huorn" category="71" did="1879471016" parentZoneId="1879063919" longitude="4.6492577" latitude="27.86371"/>
<marker id="1539170341" label="Haradrim Dervish" category="71" did="1879471017" parentZoneId="1879063919" longitude="4.470908" latitude="28.320038"/>
<marker id="1539170342" label="Sure-footed Ram" category="71" did="1879471030" parentZoneId="1879063919" longitude="4.497832" latitude="27.679745"/>
<marker id="1539170343" label="Boar" category="71" did="1879471031" parentZoneId="1879063919" longitude="4.4567966" latitude="27.70378"/>
<marker id="1539170344" label="Goblin Corsair Lobber" category="71" did="1879471029" parentZoneId="1879063919" longitude="4.510625" latitude="28.203613"/>
<marker id="1539170345" label="Goblin Chief Mate" category="71" did="1879471026" parentZoneId="1879063919" longitude="4.5088964" latitude="28.203613"/>
<marker id="1539170346" label="Sure-stride Ram" category="71" did="1879471027" parentZoneId="1879063919" longitude="4.486592" latitude="27.678457"/>
<marker id="1539170347" label="Umbari Hunter" category="71" did="1879471024" parentZoneId="1879063919" longitude="4.658369" latitude="28.28704"/>
<marker id="1539170348" label="Corsair Captain" category="71" did="1879471025" parentZoneId="1879063919" longitude="4.516582" latitude="28.277733"/>
<marker id="1539170349" label="Goblin Corsair Watch-keep" category="71" did="1879471038" parentZoneId="1879063919" longitude="4.51625" latitude="28.203613"/>
<marker id="1539170350" label="Haradrim Hunter" category="71" did="1879471039" parentZoneId="1879063919" longitude="4.5137596" latitude="28.320038"/>
<marker id="1539170351" label="Crawling Arm" category="71" did="1879471036" parentZoneId="1879063919" longitude="4.6283007" latitude="28.045204"/>
<marker id="1539170352" label="Aggressive Boar" category="71" did="1879471037" parentZoneId="1879063919" longitude="4.4517283" latitude="27.70378"/>
<marker id="1539170353" label="Haradrim War-captain" category="71" did="1879471034" parentZoneId="1879063919" longitude="4.465166" latitude="28.320038"/>
<marker id="1539170354" label="Haradrim Shield-bearer" category="71" did="1879471035" parentZoneId="1879063919" longitude="4.481113" latitude="28.320038"/>
<marker id="1539170355" label="Scuttling Crab" category="71" did="1879471032" parentZoneId="1879063919" longitude="4.5351853" latitude="27.76331"/>
<marker id="1539170356" label="Stinging Sea-fly Swarm" category="71" did="1879471033" parentZoneId="1879063919" longitude="4.488877" latitude="27.738056"/>
<marker id="1539170357" label="Umbari Spitter" category="71" did="1879471046" parentZoneId="1879063919" longitude="4.6728024" latitude="28.28704"/>
<marker id="1539170358" label="Thick-hide Crocodile" category="71" did="1879471044" parentZoneId="1879063919" longitude="4.5572557" latitude="28.087772"/>
<marker id="1539170359" label="Desert Buffalo" category="71" did="1879471045" parentZoneId="1879063919" longitude="4.497832" latitude="27.707842"/>
<marker id="1539170360" label="Goblin Corsair Berserk" category="71" did="1879471042" parentZoneId="1879063919" longitude="4.503486" latitude="28.203613"/>
<marker id="1539170361" label="Phârakab" category="71" did="1879471043" parentZoneId="1879063919" longitude="4.488672" latitude="27.76331"/>
<marker id="1539170362" label="Goblin Corsair Harpooner" category="71" did="1879471040" parentZoneId="1879063919" longitude="4.524551" latitude="28.203613"/>
<marker id="1539170363" label="Umbari Weaver" category="71" did="1879471041" parentZoneId="1879063919" longitude="4.695781" latitude="28.28704"/>
<marker id="1539170364" label="Sûbodal" category="71" did="1879471222" parentZoneId="1879063919" longitude="4.527246" latitude="28.320038"/>
<marker id="1539170365" label="Gunjik" category="71" did="1879471226" parentZoneId="1879063919" longitude="4.5188866" latitude="28.320038"/>
<marker id="1539170366" label="Bhashta" category="71" did="1879471224" parentZoneId="1879063919" longitude="4.4983106" latitude="28.320038"/>
<marker id="1539170367" label="Arregax" category="71" did="1879471238" parentZoneId="1879063919" longitude="4.4638476" latitude="27.70378"/>
<marker id="1539170369" label="Haresh" category="71" did="1879471236" parentZoneId="1879063919" longitude="4.4541993" latitude="27.860409"/>
<marker id="1539170370" label="Jatirma" category="71" did="1879471234" parentZoneId="1879063919" longitude="4.628379" latitude="28.28704"/>
<marker id="1539170371" label="Eshagil" category="71" did="1879471235" parentZoneId="1879063919" longitude="4.471045" latitude="27.761806"/>
<marker id="1539170372" label="Imkhâs the Cleaver" category="71" did="1879471232" parentZoneId="1879063919" longitude="4.5117283" latitude="27.76331"/>
<marker id="1539170373" label="Shakfut Slit-throat" category="71" did="1879471233" parentZoneId="1879063919" longitude="4.530117" latitude="28.203613"/>
<marker id="1539170375" label="Rûnax" category="71" did="1879471247" parentZoneId="1879063919" longitude="4.506494" latitude="27.678827"/>
<marker id="1539170376" label="Shâba" category="71" did="1879471245" parentZoneId="1879063919" longitude="4.4693165" latitude="27.676123"/>
<marker id="1539170377" label="Kuraghûz" category="71" did="1879471242" parentZoneId="1879063919" longitude="4.482832" latitude="27.707314"/>
<marker id="1539170378" label="Sinja" category="71" did="1879471241" parentZoneId="1879063919" longitude="4.4478126" latitude="27.860409"/>
<marker id="1539170379" label="Kabûro" category="71" did="1879471255" parentZoneId="1879063919" longitude="4.440576" latitude="27.860409"/>
<marker id="1539170380" label="Skûr" category="71" did="1879471250" parentZoneId="1879063919" longitude="4.4329004" latitude="27.860409"/>
<marker id="1539170381" label="Ghadamût" category="71" did="1879471248" parentZoneId="1879063919" longitude="4.5436716" latitude="28.087772"/>
<marker id="1539170399" label="Food Crate" category="73" did="1879471246" parentZoneId="1879063919" longitude="5.1335645" latitude="27.67329"/>
<marker id="1539170400" label="Sealed Case" category="73" did="1879471239" parentZoneId="1879063919" longitude="5.1388865" latitude="27.67329"/>
<marker id="1539170401" label="Tree Branch" category="73" did="1879473897" parentZoneId="1879063919" longitude="5.0586815" latitude="27.67202"/>
<marker id="1539170403" label="Damaged Support" category="73" did="1879473900" parentZoneId="1879063919" longitude="5.122295" latitude="27.727499"/>
<marker id="1539170404" label="Blob of Goat Fat" category="73" did="1879473899" parentZoneId="1879063919" longitude="5.041709" latitude="27.67202"/>
<marker id="1539170405" label="Large Pearl" category="73" did="1879473903" parentZoneId="1879063919" longitude="5.016924" latitude="27.67202"/>
<marker id="1539170406" label="Heavy Coin Pouch" category="73" did="1879473909" parentZoneId="1879063919" longitude="5.054121" latitude="27.67202"/>
<marker id="1539170407" label="Seized Gear" category="73" did="1879473906" parentZoneId="1879063919" longitude="5.1013575" latitude="27.699764"/>
<marker id="1539170408" label="Bellows" category="73" did="1879473908" parentZoneId="1879063919" longitude="5.1467285" latitude="27.699764"/>
<marker id="1539170409" label="Damaged Pulley" category="73" did="1879473904" parentZoneId="1879063919" longitude="5.122295" latitude="27.7158"/>
<marker id="1539170410" label="Clean Spot" category="73" did="1879473981" parentZoneId="1879063919" longitude="5.122295" latitude="27.73747"/>
<marker id="1539170411" label="Spot for a lantern" category="73" did="1879473979" parentZoneId="1879063919" longitude="5.122295" latitude="27.722128"/>
<marker id="1539170412" label="Bits of Meat" category="73" did="1879473978" parentZoneId="1879063919" longitude="5.122295" latitude="27.712694"/>
<marker id="1539170416" label="Sea Shell" category="73" did="1879474043" parentZoneId="1879063919" longitude="5.030078" latitude="27.67202"/>
<marker id="1539170417" label="Log" category="73" did="1879473894" parentZoneId="1879063919" longitude="5.047119" latitude="27.67202"/>
<marker id="1539170418" label="Phial of Huorn Sap" category="73" did="1879474041" parentZoneId="1879063919" longitude="5.021836" latitude="27.67202"/>
<marker id="1539170422" label="Blocking Rubble" category="73" did="1879474042" parentZoneId="1879063919" longitude="5.122295" latitude="27.747393"/>
</markers>
