<?xml version="1.0" encoding="UTF-8"?><markers>
<marker id="1465204736" label="Gulkânji" category="70" did="1879503319" parentZoneId="1879500813" longitude="-53.03092" latitude="-56.995712"/>
<marker id="1465204737" label="Inkanûsh" category="70" did="1879503382" parentZoneId="1879500813" longitude="-52.68285" latitude="-56.84419"/>
<marker id="1465204738" label="Khâwaz" category="70" did="1879503384" parentZoneId="1879500813" longitude="-53.02049" latitude="-56.727234"/>
<marker id="1465204739" label="Alikêsh" category="70" did="1879503414" parentZoneId="1879500813" longitude="-53.008583" latitude="-56.598755"/>
<marker id="1465204740" label="Ulishár" category="70" did="1879503415" parentZoneId="1879500813" longitude="-52.697323" latitude="-56.843018"/>
<marker id="1465204741" label="Glorfindel" category="70" did="1879503417" parentZoneId="1879500813" longitude="-52.675564" latitude="-56.85441"/>
<marker id="1465397248" label="Rôkhasar" category="70" did="1879503421" parentZoneId="1879500813" longitude="-50.75291" latitude="-57.848343"/>
</markers>
