<?xml version="1.0" encoding="UTF-8"?><markers>
<marker id="1334448128" label="Door" category="100" did="1879227953" parentZoneId="1879063919" longitude="53.20113" latitude="-21.360878"/>
<marker id="1334448129" label="Nauriel" category="70" did="1879466542" parentZoneId="1879063919" longitude="53.193962" latitude="-21.261406"/>
<marker id="1334448130" label="Carandolion" category="70" did="1879466540" parentZoneId="1879063919" longitude="53.203865" latitude="-21.23544"/>
<marker id="1334448131" label="Nauriel's Sword" category="73" did="1879466574" parentZoneId="1879063919" longitude="53.205643" latitude="-21.143896"/>
<marker id="1334448132" label="Nauriel's Shield" category="73" did="1879466579" parentZoneId="1879063919" longitude="53.198944" latitude="-21.143896"/>
<marker id="1334448133" label="King Elessar" category="70" did="1879464751" parentZoneId="1879063919" longitude="53.198242" latitude="-21.242666"/>
<marker id="1334448134" label="Daeram" category="70" did="1879464749" parentZoneId="1879063919" longitude="53.15779" latitude="-21.32076"/>
<marker id="1334448135" label="Orgolas" category="70" did="1879464745" parentZoneId="1879063919" longitude="53.211933" latitude="-21.236748"/>
<marker id="1334448136" label="Nauriel" category="70" did="1879464767" parentZoneId="1879063919" longitude="53.20088" latitude="-21.261923"/>
<marker id="1334448137" label="Thorongil" category="70" did="1879464765" parentZoneId="1879063919" longitude="53.2258" latitude="-20.909277"/>
<marker id="1334448138" label="Orgolas" category="70" did="1879464761" parentZoneId="1879063919" longitude="53.23947" latitude="-20.93208"/>
<marker id="1334448139" label="Nauriel" category="70" did="1879464775" parentZoneId="1879063919" longitude="53.205605" latitude="-21.26709"/>
<marker id="1334448140" label="King Elessar" category="70" did="1879464772" parentZoneId="1879063919" longitude="53.218513" latitude="-21.246796"/>
<marker id="1334464512" label="Door" category="100" did="1879139137" parentZoneId="1879063919" longitude="53.212322" latitude="-18.047226"/>
<marker id="1334464514" label="Gimli" category="70" did="1879460502" parentZoneId="1879063919" longitude="53.25904" latitude="-18.03254"/>
<marker id="1334464520" label="Caebar" category="70" did="1879460467" parentZoneId="1879063919" longitude="53.284218" latitude="-18.03043"/>
<marker id="1334464521" label="King Elessar" category="70" did="1879460497" parentZoneId="1879063919" longitude="53.289803" latitude="-18.059961"/>
<marker id="1334472704" label="Door" category="100" did="1879139137" parentZoneId="1879063919" longitude="53.21033" latitude="-16.44792"/>
<marker id="1334472705" label="Asitám" category="70" did="1879460449" parentZoneId="1879063919" longitude="53.301796" latitude="-16.484034"/>
<marker id="1334472706" label="Gangur Farwend" category="70" did="1879460463" parentZoneId="1879063919" longitude="53.38881" latitude="-16.403456"/>
<marker id="1334472707" label="Gimli" category="70" did="1879460938" parentZoneId="1879063919" longitude="53.256348" latitude="-16.461552"/>
<marker id="1334480896" label="Door" category="100" did="1879139137" parentZoneId="1879063919" longitude="53.200176" latitude="-14.835116"/>
<marker id="1334480898" label="Gimli" category="70" did="1879460938" parentZoneId="1879063919" longitude="53.219296" latitude="-14.703036"/>
<marker id="1334480899" label="Gúlkhu" category="70" did="1879460495" parentZoneId="1879063919" longitude="53.1641" latitude="-14.686669"/>
<marker id="1334489088" label="Door" category="100" did="1879139137" parentZoneId="1879063919" longitude="53.398514" latitude="-13.19997"/>
<marker id="1334489092" label="Caebar" category="70" did="1879460923" parentZoneId="1879063919" longitude="53.04781" latitude="-13.197294"/>
<marker id="1334489093" label="Caebar" category="70" did="1879460923" parentZoneId="1879063919" longitude="53.046387" latitude="-13.210703"/>
<marker id="1334489094" label="Gimli" category="70" did="1879460938" parentZoneId="1879063919" longitude="53.043884" latitude="-13.186816"/>
<marker id="1334489095" label="Gimli" category="70" did="1879460938" parentZoneId="1879063919" longitude="53.04484" latitude="-13.190449"/>
<marker id="1334489098" label="Hámisar" category="70" did="1879460460" parentZoneId="1879063919" longitude="53.003025" latitude="-13.200419"/>
<marker id="1334489099" label="King Elessar" category="70" did="1879460492" parentZoneId="1879063919" longitude="53.04379" latitude="-13.205684"/>
<marker id="1334489101" label="King Elessar" category="70" did="1879460471" parentZoneId="1879063919" longitude="53.04357" latitude="-13.198779"/>
<marker id="1334579202" label="Jajax" category="70" did="1879460925" parentZoneId="1879464792" longitude="54.977264" latitude="-21.206972"/>
<marker id="1334579203" label="King Elessar" category="70" did="1879460950" parentZoneId="1879464792" longitude="54.977364" latitude="-21.229258"/>
<marker id="1334579204" label="Jajax" category="70" did="1879460937" parentZoneId="1879464792" longitude="54.976875" latitude="-21.214384"/>
<marker id="1334579206" label="Dorthaneth" category="70" did="1879466691" parentZoneId="1879464792" longitude="54.974724" latitude="-21.205498"/>
<marker id="1334579207" label="Rossaran" category="70" did="1879466698" parentZoneId="1879464792" longitude="54.982048" latitude="-21.274921"/>
<marker id="1334579208" label="King Elessar" category="70" did="1879466693" parentZoneId="1879464792" longitude="54.968964" latitude="-21.252178"/>
<marker id="1334579209" label="Queen Arwen" category="70" did="1879466696" parentZoneId="1879464792" longitude="54.98338" latitude="-21.251493"/>
<marker id="1334579210" label="Roamingstar" category="70" did="1879466695" parentZoneId="1879464792" longitude="54.975506" latitude="-21.235643"/>
<marker id="1334579211" label="Door" category="100" did="1879227952" parentZoneId="1879464792" longitude="54.976406" latitude="-21.624092"/>
<marker id="1334579212" label="Jajax" category="70" did="1879466195" parentZoneId="1879464792" longitude="54.976677" latitude="-21.215586"/>
<marker id="1334579213" label="Lothíriel" category="70" did="1879465815" parentZoneId="1879464792" longitude="54.971462" latitude="-21.181992"/>
<marker id="1334579214" label="Prince Imrahil" category="70" did="1879460480" parentZoneId="1879464792" longitude="54.97785" latitude="-21.185791"/>
<marker id="1334579215" label="Captain Maeral" category="70" did="1879460927" parentZoneId="1879464792" longitude="54.98291" latitude="-21.215517"/>
<marker id="1334579219" label="Elf of the Avorrim" category="70" did="1879466694" parentZoneId="1879464792" longitude="54.967224" latitude="-21.208212"/>
<marker id="1334579221" label="Elf of the Avorrim" category="70" did="1879466692" parentZoneId="1879464792" longitude="54.97148" latitude="-21.20124"/>
<marker id="1334579223" label="Place for Bowl of Water" category="73" did="1879466690" parentZoneId="1879464792" longitude="54.975643" latitude="-21.236162"/>
<marker id="1334579225" label="Prince Imrahil" category="70" did="1879466689" parentZoneId="1879464792" longitude="54.977596" latitude="-21.182655"/>
<marker id="1334579226" label="Prince Imrahil" category="70" did="1879466689" parentZoneId="1879464792" longitude="54.977127" latitude="-21.178535"/>
<marker id="1334579228" label="Lothíriel" category="70" did="1879466699" parentZoneId="1879464792" longitude="54.98209" latitude="-21.202002"/>
<marker id="1334579230" label="Herald of Dol Amroth" category="70" did="1879466697" parentZoneId="1879464792" longitude="54.977146" latitude="-21.2425"/>
<marker id="1334587397" label="Door" category="100" did="1879227953" parentZoneId="1879464793" longitude="54.918083" latitude="-19.329794"/>
<marker id="1334587402" label="Celudir" category="70" did="1879465816" parentZoneId="1879464793" longitude="54.691875" latitude="-19.670536"/>
<marker id="1334587404" label="Brithben" category="70" did="1879465798" parentZoneId="1879464793" longitude="54.86539" latitude="-19.448477"/>
<marker id="1334587405" label="Gloril" category="70" did="1879465803" parentZoneId="1879464793" longitude="54.910995" latitude="-19.756786"/>
<marker id="1334587406" label="Ríaneth" category="70" did="1879465787" parentZoneId="1879464793" longitude="55.061443" latitude="-19.636318"/>
<marker id="1334587407" label="Nennion" category="70" did="1879465793" parentZoneId="1879464793" longitude="55.111874" latitude="-19.509813"/>
<marker id="1334611969" label="Currency Exchange" category="58" did="1879313747" parentZoneId="1879464796" longitude="54.824745" latitude="-14.797168"/>
<marker id="1334611970" label="Cosmetics" category="58" did="1879313756" parentZoneId="1879464796" longitude="54.730408" latitude="-14.811835"/>
<marker id="1334611971" label="Crafting" category="58" did="1879313763" parentZoneId="1879464796" longitude="54.76117" latitude="-14.800722"/>
<marker id="1334611972" label="Curiosities" category="58" did="1879313751" parentZoneId="1879464796" longitude="54.72955" latitude="-14.8004875"/>
<marker id="1334611973" label="Provisioner" category="58" did="1879313744" parentZoneId="1879464796" longitude="54.75367" latitude="-14.821318"/>
<marker id="1334611974" label="Heavy Armour" category="58" did="1879313742" parentZoneId="1879464796" longitude="54.8515" latitude="-14.7498045"/>
<marker id="1334611976" label="Light Armour" category="58" did="1879313755" parentZoneId="1879464796" longitude="54.85697" latitude="-14.733525"/>
<marker id="1334611977" label="Medium Armour" category="58" did="1879313762" parentZoneId="1879464796" longitude="54.865723" latitude="-14.74747"/>
<marker id="1334611978" label="Weapons" category="58" did="1879313753" parentZoneId="1879464796" longitude="54.8557" latitude="-14.7774315"/>
<marker id="1334611979" label="Skirmish Captain&#10;Orma" category="58" did="1879313739" parentZoneId="1879464796" longitude="54.770233" latitude="-14.772206"/>
<marker id="1334611980" label="Skirmish Trainer" category="58" did="1879313738" parentZoneId="1879464796" longitude="54.788475" latitude="-14.773749"/>
<marker id="1334611981" label="Door" category="100" did="1879227953" parentZoneId="1879464796" longitude="54.854824" latitude="-14.607431"/>
<marker id="1334611982" label="Jewellery and Cloaks" category="58" did="1879313740" parentZoneId="1879464796" longitude="54.880234" latitude="-14.777676"/>
<marker id="1334611983" label="Classic" category="58" did="1879313741" parentZoneId="1879464796" longitude="54.796833" latitude="-14.805614"/>
<marker id="1334620160" label="Study" category="45" did="1879314747" parentZoneId="1879464797" longitude="54.733143" latitude="-13.204307"/>
<marker id="1334620161" label="Study" category="45" did="1879314747" parentZoneId="1879464797" longitude="54.733143" latitude="-13.088554"/>
<marker id="1334620162" label="Improved Recipes&#10;Woodworker's Guild" category="33" did="1879313731" parentZoneId="1879464797" longitude="54.81455" latitude="-13.316484"/>
<marker id="1334620163" label="Guild Leader&#10;Woodworker's Guild" category="58" did="1879313724" parentZoneId="1879464797" longitude="54.819355" latitude="-13.310752"/>
<marker id="1334620164" label="Legendary Recipes&#10;Woodworker's Guild" category="33" did="1879313730" parentZoneId="1879464797" longitude="54.822205" latitude="-13.31831"/>
<marker id="1334620165" label="Improved Recipes&#10;Weaponsmith's Guild" category="33" did="1879313726" parentZoneId="1879464797" longitude="54.703728" latitude="-12.987676"/>
<marker id="1334620166" label="Guild Leader&#10;Weaponsmith's Guild" category="58" did="1879313718" parentZoneId="1879464797" longitude="54.698223" latitude="-12.980449"/>
<marker id="1334620167" label="Legendary Recipes&#10;Weaponsmith's Guild" category="33" did="1879313721" parentZoneId="1879464797" longitude="54.71662" latitude="-12.984345"/>
<marker id="1334620168" label="Improved Recipes&#10;Tailor's Guild" category="33" did="1879313725" parentZoneId="1879464797" longitude="54.828613" latitude="-12.984648"/>
<marker id="1334620169" label="Guild Leader&#10;Tailor's Guild" category="58" did="1879313712" parentZoneId="1879464797" longitude="54.83408" latitude="-12.978408"/>
<marker id="1334620170" label="Legendary Recipes&#10;Tailor's Guild" category="33" did="1879313719" parentZoneId="1879464797" longitude="54.83947" latitude="-12.984648"/>
<marker id="1334620171" label="Improved Recipes&#10;Scholar's Guild" category="33" did="1879313715" parentZoneId="1879464797" longitude="54.944004" latitude="-13.161133"/>
<marker id="1334620172" label="Guild Leader&#10;Scholar's Guild" category="58" did="1879313728" parentZoneId="1879464797" longitude="54.944824" latitude="-13.152734"/>
<marker id="1334620173" label="Legendary Recipes&#10;Scholar's Guild" category="33" did="1879313713" parentZoneId="1879464797" longitude="54.95238" latitude="-13.157929"/>
<marker id="1334620174" label="Improved Recipes&#10;Metalsmith's Guild" category="33" did="1879313722" parentZoneId="1879464797" longitude="54.594666" latitude="-12.985186"/>
<marker id="1334620175" label="Guild Leader&#10;Metalsmith's Guild" category="58" did="1879313723" parentZoneId="1879464797" longitude="54.61861" latitude="-12.981884"/>
<marker id="1334620176" label="Legendary Recipes&#10;Metalsmith's Guild" category="33" did="1879313716" parentZoneId="1879464797" longitude="54.61113" latitude="-12.977197"/>
<marker id="1334620177" label="Improved Recipes&#10;Jeweller's Guild" category="33" did="1879313732" parentZoneId="1879464797" longitude="54.61672" latitude="-13.319023"/>
<marker id="1334620178" label="Guild Leader&#10;Jeweller's Guild" category="58" did="1879313729" parentZoneId="1879464797" longitude="54.613846" latitude="-13.308887"/>
<marker id="1334620179" label="Legendary Recipes&#10;Jeweller's Guild" category="33" did="1879313727" parentZoneId="1879464797" longitude="54.623104" latitude="-13.321074"/>
<marker id="1334620180" label="Improved Recipes&#10;Cook's Guild" category="33" did="1879313714" parentZoneId="1879464797" longitude="54.715134" latitude="-13.30875"/>
<marker id="1334620181" label="Guild Leader&#10;Cook's Guild" category="58" did="1879313717" parentZoneId="1879464797" longitude="54.728985" latitude="-13.305351"/>
<marker id="1334620182" label="Legendary Recipes&#10;Cook's Guild" category="33" did="1879313720" parentZoneId="1879464797" longitude="54.723984" latitude="-13.31245"/>
<marker id="1334620184" label="Nosseth" category="70" did="1879465806" parentZoneId="1879464797" longitude="54.752537" latitude="-13.447178"/>
<marker id="1334620185" label="Door" category="100" did="1879157895" parentZoneId="1879464797" longitude="54.387207" latitude="-13.145722"/>
<marker id="1334620187" label="Naremil" category="70" did="1879465813" parentZoneId="1879464797" longitude="54.916443" latitude="-13.100439"/>
<marker id="1334620188" label="Book on Rohan" category="73" did="1879465834" parentZoneId="1879464797" longitude="54.81088" latitude="-13.423115"/>
<marker id="1334620189" label="Book on Rohan" category="73" did="1879465834" parentZoneId="1879464797" longitude="54.664707" latitude="-13.484726"/>
<marker id="1334620190" label="Book on Rohan" category="73" did="1879465834" parentZoneId="1879464797" longitude="54.594627" latitude="-13.302656"/>
<marker id="1334620191" label="Book on Rohan" category="73" did="1879465834" parentZoneId="1879464797" longitude="54.515427" latitude="-13.4847555"/>
<marker id="1334620192" label="Book on Rohan" category="73" did="1879465834" parentZoneId="1879464797" longitude="54.668182" latitude="-13.484482"/>
<marker id="1334620193" label="Book on Rohan" category="73" did="1879465834" parentZoneId="1879464797" longitude="54.636932" latitude="-13.405468"/>
<marker id="1334620194" label="Book on Rohan" category="73" did="1879465834" parentZoneId="1879464797" longitude="54.910564" latitude="-13.424443"/>
<marker id="1334620195" label="Book on Rohan" category="73" did="1879465834" parentZoneId="1879464797" longitude="54.968533" latitude="-13.379883"/>
<marker id="1334620196" label="Book on Rohan" category="73" did="1879465834" parentZoneId="1879464797" longitude="54.968533" latitude="-13.232139"/>
<marker id="1334620197" label="Book on Rohan" category="73" did="1879465834" parentZoneId="1879464797" longitude="54.752968" latitude="-13.415537"/>
<marker id="1334620200" label="" category="70" did="1879313180" parentZoneId="1879464797" longitude="54.71791" latitude="-12.920644"/>
<marker id="1334620201" label="" category="70" did="1879313180" parentZoneId="1879464797" longitude="54.712265" latitude="-13.365801"/>
<marker id="1334620202" label="" category="70" did="1879313180" parentZoneId="1879464797" longitude="54.83035" latitude="-13.147158"/>
<marker id="1334620203" label="" category="70" did="1879313180" parentZoneId="1879464797" longitude="54.733047" latitude="-12.82538"/>
<marker id="1334620204" label="" category="70" did="1879313195" parentZoneId="1879464797" longitude="54.679646" latitude="-12.934716"/>
<marker id="1334620205" label="" category="70" did="1879313195" parentZoneId="1879464797" longitude="54.754044" latitude="-13.361279"/>
<marker id="1334620206" label="" category="70" did="1879313195" parentZoneId="1879464797" longitude="54.733418" latitude="-13.156543"/>
<marker id="1334620207" label="" category="70" did="1879313195" parentZoneId="1879464797" longitude="54.673573" latitude="-13.253398"/>
</markers>
