<?xml version="1.0" encoding="UTF-8"?><markers>
<marker id="1352458240" label="Treasure Cache" category="73" did="1879469673" parentZoneId="1879470529" longitude="-136.50708" latitude="2.3394628"/>
<marker id="1352507392" label="Wild Boar" category="71" did="1879475086" parentZoneId="1879470529" longitude="-135.72931" latitude="-0.6420215"/>
<marker id="1352507393" label="Stone-lizard" category="71" did="1879475087" parentZoneId="1879470529" longitude="-135.72931" latitude="-0.6420215"/>
<marker id="1352507394" label="Jeb Khâtel Sabre-tooth" category="71" did="1879475090" parentZoneId="1879470529" longitude="-135.72931" latitude="-0.6420215"/>
<marker id="1352507395" label="Jeb Khâtel Cliff-darter" category="71" did="1879475102" parentZoneId="1879470529" longitude="-135.72931" latitude="-0.6420215"/>
<marker id="1352507396" label="Jeb Khâtel Sea-leech" category="71" did="1879475101" parentZoneId="1879470529" longitude="-135.72931" latitude="-0.6420215"/>
<marker id="1352507397" label="Turtle" category="78" did="1879250311" parentZoneId="1879470529" longitude="-136.05402" latitude="-0.4450488"/>
<marker id="1352507398" label="Indigo Plant" category="77" did="1879054949" parentZoneId="1879470529" longitude="-136.05402" latitude="-0.4450488"/>
<marker id="1352507399" label="Jerboa" category="78" did="1879478483" parentZoneId="1879470529" longitude="-136.05402" latitude="-0.4450488"/>
<marker id="1352507400" label="Bunch of Strawberries" category="77" did="1879061415" parentZoneId="1879470529" longitude="-136.05402" latitude="-0.4450488"/>
<marker id="1352507401" label="Drop of Fine Clover Honey" category="77" did="1879061399" parentZoneId="1879470529" longitude="-136.05402" latitude="-0.4450488"/>
<marker id="1352507402" label="Bunch of Raspberries" category="77" did="1879061417" parentZoneId="1879470529" longitude="-136.05402" latitude="-0.4450488"/>
<marker id="1352507403" label="Tater" category="77" did="1879061257" parentZoneId="1879470529" longitude="-136.05402" latitude="-0.4450488"/>
<marker id="1352507404" label="Bunch of Blackberries" category="77" did="1879061418" parentZoneId="1879470529" longitude="-136.05402" latitude="-0.4450488"/>
<marker id="1352507405" label="Bunch of Blueberries" category="77" did="1879061342" parentZoneId="1879470529" longitude="-136.05402" latitude="-0.4450488"/>
<marker id="1352507406" label="Ribbon Snake" category="78" did="1879078078" parentZoneId="1879470529" longitude="-136.05402" latitude="-0.4450488"/>
<marker id="1352507407" label="Frog" category="78" did="1879086590" parentZoneId="1879470529" longitude="-136.05402" latitude="-0.4450488"/>
<marker id="1352507408" label="Turtle" category="78" did="1879250311" parentZoneId="1879470529" longitude="-135.8848" latitude="-0.42542967"/>
<marker id="1352507409" label="Indigo Plant" category="77" did="1879054949" parentZoneId="1879470529" longitude="-135.8848" latitude="-0.42542967"/>
<marker id="1352507410" label="Jerboa" category="78" did="1879478483" parentZoneId="1879470529" longitude="-135.8848" latitude="-0.42542967"/>
<marker id="1352507411" label="Bunch of Strawberries" category="77" did="1879061415" parentZoneId="1879470529" longitude="-135.8848" latitude="-0.42542967"/>
<marker id="1352507412" label="Drop of Fine Clover Honey" category="77" did="1879061399" parentZoneId="1879470529" longitude="-135.8848" latitude="-0.42542967"/>
<marker id="1352507413" label="Bunch of Raspberries" category="77" did="1879061417" parentZoneId="1879470529" longitude="-135.8848" latitude="-0.42542967"/>
<marker id="1352507414" label="Tater" category="77" did="1879061257" parentZoneId="1879470529" longitude="-135.8848" latitude="-0.42542967"/>
<marker id="1352507415" label="Bunch of Blackberries" category="77" did="1879061418" parentZoneId="1879470529" longitude="-135.8848" latitude="-0.42542967"/>
<marker id="1352507416" label="Bunch of Blueberries" category="77" did="1879061342" parentZoneId="1879470529" longitude="-135.8848" latitude="-0.42542967"/>
<marker id="1352507417" label="Ribbon Snake" category="78" did="1879078078" parentZoneId="1879470529" longitude="-135.8848" latitude="-0.42542967"/>
<marker id="1352507418" label="Frog" category="78" did="1879086590" parentZoneId="1879470529" longitude="-135.8848" latitude="-0.42542967"/>
<marker id="1352507419" label="Turtle" category="78" did="1879250311" parentZoneId="1879470529" longitude="-135.749" latitude="-0.46367186"/>
<marker id="1352507420" label="Indigo Plant" category="77" did="1879054949" parentZoneId="1879470529" longitude="-135.749" latitude="-0.46367186"/>
<marker id="1352507421" label="Jerboa" category="78" did="1879478483" parentZoneId="1879470529" longitude="-135.749" latitude="-0.46367186"/>
<marker id="1352507422" label="Bunch of Strawberries" category="77" did="1879061415" parentZoneId="1879470529" longitude="-135.749" latitude="-0.46367186"/>
<marker id="1352507423" label="Drop of Fine Clover Honey" category="77" did="1879061399" parentZoneId="1879470529" longitude="-135.749" latitude="-0.46367186"/>
<marker id="1352507424" label="Bunch of Raspberries" category="77" did="1879061417" parentZoneId="1879470529" longitude="-135.749" latitude="-0.46367186"/>
<marker id="1352507425" label="Tater" category="77" did="1879061257" parentZoneId="1879470529" longitude="-135.749" latitude="-0.46367186"/>
<marker id="1352507426" label="Bunch of Blackberries" category="77" did="1879061418" parentZoneId="1879470529" longitude="-135.749" latitude="-0.46367186"/>
<marker id="1352507427" label="Bunch of Blueberries" category="77" did="1879061342" parentZoneId="1879470529" longitude="-135.749" latitude="-0.46367186"/>
<marker id="1352507428" label="Ribbon Snake" category="78" did="1879078078" parentZoneId="1879470529" longitude="-135.749" latitude="-0.46367186"/>
<marker id="1352507429" label="Frog" category="78" did="1879086590" parentZoneId="1879470529" longitude="-135.749" latitude="-0.46367186"/>
<marker id="1352507430" label="Turtle" category="78" did="1879250311" parentZoneId="1879470529" longitude="-135.7356" latitude="-0.5864844"/>
<marker id="1352507431" label="Indigo Plant" category="77" did="1879054949" parentZoneId="1879470529" longitude="-135.7356" latitude="-0.5864844"/>
<marker id="1352507432" label="Jerboa" category="78" did="1879478483" parentZoneId="1879470529" longitude="-135.7356" latitude="-0.5864844"/>
<marker id="1352507433" label="Bunch of Strawberries" category="77" did="1879061415" parentZoneId="1879470529" longitude="-135.7356" latitude="-0.5864844"/>
<marker id="1352507434" label="Drop of Fine Clover Honey" category="77" did="1879061399" parentZoneId="1879470529" longitude="-135.7356" latitude="-0.5864844"/>
<marker id="1352507435" label="Bunch of Raspberries" category="77" did="1879061417" parentZoneId="1879470529" longitude="-135.7356" latitude="-0.5864844"/>
<marker id="1352507436" label="Tater" category="77" did="1879061257" parentZoneId="1879470529" longitude="-135.7356" latitude="-0.5864844"/>
<marker id="1352507437" label="Bunch of Blackberries" category="77" did="1879061418" parentZoneId="1879470529" longitude="-135.7356" latitude="-0.5864844"/>
<marker id="1352507438" label="Bunch of Blueberries" category="77" did="1879061342" parentZoneId="1879470529" longitude="-135.7356" latitude="-0.5864844"/>
<marker id="1352507439" label="Ribbon Snake" category="78" did="1879078078" parentZoneId="1879470529" longitude="-135.7356" latitude="-0.5864844"/>
<marker id="1352507440" label="Frog" category="78" did="1879086590" parentZoneId="1879470529" longitude="-135.7356" latitude="-0.5864844"/>
<marker id="1352507441" label="Turtle" category="78" did="1879250311" parentZoneId="1879470529" longitude="-135.65367" latitude="-0.7475"/>
<marker id="1352507442" label="Indigo Plant" category="77" did="1879054949" parentZoneId="1879470529" longitude="-135.65367" latitude="-0.7475"/>
<marker id="1352507443" label="Jerboa" category="78" did="1879478483" parentZoneId="1879470529" longitude="-135.65367" latitude="-0.7475"/>
<marker id="1352507444" label="Bunch of Strawberries" category="77" did="1879061415" parentZoneId="1879470529" longitude="-135.65367" latitude="-0.7475"/>
<marker id="1352507445" label="Drop of Fine Clover Honey" category="77" did="1879061399" parentZoneId="1879470529" longitude="-135.65367" latitude="-0.7475"/>
<marker id="1352507446" label="Bunch of Raspberries" category="77" did="1879061417" parentZoneId="1879470529" longitude="-135.65367" latitude="-0.7475"/>
<marker id="1352507447" label="Tater" category="77" did="1879061257" parentZoneId="1879470529" longitude="-135.65367" latitude="-0.7475"/>
<marker id="1352507448" label="Bunch of Blackberries" category="77" did="1879061418" parentZoneId="1879470529" longitude="-135.65367" latitude="-0.7475"/>
<marker id="1352507449" label="Bunch of Blueberries" category="77" did="1879061342" parentZoneId="1879470529" longitude="-135.65367" latitude="-0.7475"/>
<marker id="1352507450" label="Ribbon Snake" category="78" did="1879078078" parentZoneId="1879470529" longitude="-135.65367" latitude="-0.7475"/>
<marker id="1352507451" label="Frog" category="78" did="1879086590" parentZoneId="1879470529" longitude="-135.65367" latitude="-0.7475"/>
<marker id="1352507452" label="Turtle" category="78" did="1879250311" parentZoneId="1879470529" longitude="-135.66298" latitude="-0.4889746"/>
<marker id="1352507453" label="Indigo Plant" category="77" did="1879054949" parentZoneId="1879470529" longitude="-135.66298" latitude="-0.4889746"/>
<marker id="1352507454" label="Jerboa" category="78" did="1879478483" parentZoneId="1879470529" longitude="-135.66298" latitude="-0.4889746"/>
<marker id="1352507455" label="Bunch of Strawberries" category="77" did="1879061415" parentZoneId="1879470529" longitude="-135.66298" latitude="-0.4889746"/>
<marker id="1352507456" label="Drop of Fine Clover Honey" category="77" did="1879061399" parentZoneId="1879470529" longitude="-135.66298" latitude="-0.4889746"/>
<marker id="1352507457" label="Bunch of Raspberries" category="77" did="1879061417" parentZoneId="1879470529" longitude="-135.66298" latitude="-0.4889746"/>
<marker id="1352507458" label="Tater" category="77" did="1879061257" parentZoneId="1879470529" longitude="-135.66298" latitude="-0.4889746"/>
<marker id="1352507459" label="Bunch of Blackberries" category="77" did="1879061418" parentZoneId="1879470529" longitude="-135.66298" latitude="-0.4889746"/>
<marker id="1352507460" label="Bunch of Blueberries" category="77" did="1879061342" parentZoneId="1879470529" longitude="-135.66298" latitude="-0.4889746"/>
<marker id="1352507461" label="Ribbon Snake" category="78" did="1879078078" parentZoneId="1879470529" longitude="-135.66298" latitude="-0.4889746"/>
<marker id="1352507462" label="Frog" category="78" did="1879086590" parentZoneId="1879470529" longitude="-135.66298" latitude="-0.4889746"/>
<marker id="1352507463" label="Turtle" category="78" did="1879250311" parentZoneId="1879470529" longitude="-135.68509" latitude="-0.7678711"/>
<marker id="1352507464" label="Indigo Plant" category="77" did="1879054949" parentZoneId="1879470529" longitude="-135.68509" latitude="-0.7678711"/>
<marker id="1352507465" label="Jerboa" category="78" did="1879478483" parentZoneId="1879470529" longitude="-135.68509" latitude="-0.7678711"/>
<marker id="1352507466" label="Bunch of Strawberries" category="77" did="1879061415" parentZoneId="1879470529" longitude="-135.68509" latitude="-0.7678711"/>
<marker id="1352507467" label="Drop of Fine Clover Honey" category="77" did="1879061399" parentZoneId="1879470529" longitude="-135.68509" latitude="-0.7678711"/>
<marker id="1352507468" label="Bunch of Raspberries" category="77" did="1879061417" parentZoneId="1879470529" longitude="-135.68509" latitude="-0.7678711"/>
<marker id="1352507469" label="Tater" category="77" did="1879061257" parentZoneId="1879470529" longitude="-135.68509" latitude="-0.7678711"/>
<marker id="1352507470" label="Bunch of Blackberries" category="77" did="1879061418" parentZoneId="1879470529" longitude="-135.68509" latitude="-0.7678711"/>
<marker id="1352507471" label="Bunch of Blueberries" category="77" did="1879061342" parentZoneId="1879470529" longitude="-135.68509" latitude="-0.7678711"/>
<marker id="1352507472" label="Ribbon Snake" category="78" did="1879078078" parentZoneId="1879470529" longitude="-135.68509" latitude="-0.7678711"/>
<marker id="1352507473" label="Frog" category="78" did="1879086590" parentZoneId="1879470529" longitude="-135.68509" latitude="-0.7678711"/>
<marker id="1352507474" label="Turtle" category="78" did="1879250311" parentZoneId="1879470529" longitude="-135.8961" latitude="-0.42614257"/>
<marker id="1352507475" label="Indigo Plant" category="77" did="1879054949" parentZoneId="1879470529" longitude="-135.8961" latitude="-0.42614257"/>
<marker id="1352507476" label="Jerboa" category="78" did="1879478483" parentZoneId="1879470529" longitude="-135.8961" latitude="-0.42614257"/>
<marker id="1352507477" label="Bunch of Strawberries" category="77" did="1879061415" parentZoneId="1879470529" longitude="-135.8961" latitude="-0.42614257"/>
<marker id="1352507478" label="Drop of Fine Clover Honey" category="77" did="1879061399" parentZoneId="1879470529" longitude="-135.8961" latitude="-0.42614257"/>
<marker id="1352507479" label="Bunch of Raspberries" category="77" did="1879061417" parentZoneId="1879470529" longitude="-135.8961" latitude="-0.42614257"/>
<marker id="1352507480" label="Tater" category="77" did="1879061257" parentZoneId="1879470529" longitude="-135.8961" latitude="-0.42614257"/>
<marker id="1352507481" label="Bunch of Blackberries" category="77" did="1879061418" parentZoneId="1879470529" longitude="-135.8961" latitude="-0.42614257"/>
<marker id="1352507482" label="Bunch of Blueberries" category="77" did="1879061342" parentZoneId="1879470529" longitude="-135.8961" latitude="-0.42614257"/>
<marker id="1352507483" label="Ribbon Snake" category="78" did="1879078078" parentZoneId="1879470529" longitude="-135.8961" latitude="-0.42614257"/>
<marker id="1352507484" label="Frog" category="78" did="1879086590" parentZoneId="1879470529" longitude="-135.8961" latitude="-0.42614257"/>
<marker id="1352507485" label="Turtle" category="78" did="1879250311" parentZoneId="1879470529" longitude="-136.08542" latitude="-0.42311522"/>
<marker id="1352507486" label="Indigo Plant" category="77" did="1879054949" parentZoneId="1879470529" longitude="-136.08542" latitude="-0.42311522"/>
<marker id="1352507487" label="Jerboa" category="78" did="1879478483" parentZoneId="1879470529" longitude="-136.08542" latitude="-0.42311522"/>
<marker id="1352507488" label="Bunch of Strawberries" category="77" did="1879061415" parentZoneId="1879470529" longitude="-136.08542" latitude="-0.42311522"/>
<marker id="1352507489" label="Drop of Fine Clover Honey" category="77" did="1879061399" parentZoneId="1879470529" longitude="-136.08542" latitude="-0.42311522"/>
<marker id="1352507490" label="Bunch of Raspberries" category="77" did="1879061417" parentZoneId="1879470529" longitude="-136.08542" latitude="-0.42311522"/>
<marker id="1352507491" label="Tater" category="77" did="1879061257" parentZoneId="1879470529" longitude="-136.08542" latitude="-0.42311522"/>
<marker id="1352507492" label="Bunch of Blackberries" category="77" did="1879061418" parentZoneId="1879470529" longitude="-136.08542" latitude="-0.42311522"/>
<marker id="1352507493" label="Bunch of Blueberries" category="77" did="1879061342" parentZoneId="1879470529" longitude="-136.08542" latitude="-0.42311522"/>
<marker id="1352507494" label="Ribbon Snake" category="78" did="1879078078" parentZoneId="1879470529" longitude="-136.08542" latitude="-0.42311522"/>
<marker id="1352507495" label="Frog" category="78" did="1879086590" parentZoneId="1879470529" longitude="-136.08542" latitude="-0.42311522"/>
<marker id="1352511488" label="Wild Boar" category="71" did="1879475086" parentZoneId="1879470529" longitude="-135.79802" latitude="-0.17361328"/>
<marker id="1352511489" label="Stone-lizard" category="71" did="1879475087" parentZoneId="1879470529" longitude="-135.79802" latitude="-0.17361328"/>
<marker id="1352511490" label="Jeb Khâtel Sabre-tooth" category="71" did="1879475090" parentZoneId="1879470529" longitude="-135.79802" latitude="-0.17361328"/>
<marker id="1352511491" label="Jeb Khâtel Cliff-darter" category="71" did="1879475102" parentZoneId="1879470529" longitude="-135.79802" latitude="-0.17361328"/>
<marker id="1352511492" label="Jeb Khâtel Sea-leech" category="71" did="1879475101" parentZoneId="1879470529" longitude="-135.79802" latitude="-0.17361328"/>
<marker id="1352511493" label="Turtle" category="78" did="1879250311" parentZoneId="1879470529" longitude="-135.78648" latitude="-0.28067383"/>
<marker id="1352511494" label="Indigo Plant" category="77" did="1879054949" parentZoneId="1879470529" longitude="-135.78648" latitude="-0.28067383"/>
<marker id="1352511495" label="Jerboa" category="78" did="1879478483" parentZoneId="1879470529" longitude="-135.78648" latitude="-0.28067383"/>
<marker id="1352511496" label="Bunch of Strawberries" category="77" did="1879061415" parentZoneId="1879470529" longitude="-135.78648" latitude="-0.28067383"/>
<marker id="1352511497" label="Drop of Fine Clover Honey" category="77" did="1879061399" parentZoneId="1879470529" longitude="-135.78648" latitude="-0.28067383"/>
<marker id="1352511498" label="Bunch of Raspberries" category="77" did="1879061417" parentZoneId="1879470529" longitude="-135.78648" latitude="-0.28067383"/>
<marker id="1352511499" label="Tater" category="77" did="1879061257" parentZoneId="1879470529" longitude="-135.78648" latitude="-0.28067383"/>
<marker id="1352511500" label="Bunch of Blackberries" category="77" did="1879061418" parentZoneId="1879470529" longitude="-135.78648" latitude="-0.28067383"/>
<marker id="1352511501" label="Bunch of Blueberries" category="77" did="1879061342" parentZoneId="1879470529" longitude="-135.78648" latitude="-0.28067383"/>
<marker id="1352511502" label="Ribbon Snake" category="78" did="1879078078" parentZoneId="1879470529" longitude="-135.78648" latitude="-0.28067383"/>
<marker id="1352511503" label="Frog" category="78" did="1879086590" parentZoneId="1879470529" longitude="-135.78648" latitude="-0.28067383"/>
<marker id="1352511504" label="Turtle" category="78" did="1879250311" parentZoneId="1879470529" longitude="-135.64552" latitude="-0.3299414"/>
<marker id="1352511505" label="Indigo Plant" category="77" did="1879054949" parentZoneId="1879470529" longitude="-135.64552" latitude="-0.3299414"/>
<marker id="1352511506" label="Jerboa" category="78" did="1879478483" parentZoneId="1879470529" longitude="-135.64552" latitude="-0.3299414"/>
<marker id="1352511507" label="Bunch of Strawberries" category="77" did="1879061415" parentZoneId="1879470529" longitude="-135.64552" latitude="-0.3299414"/>
<marker id="1352511508" label="Drop of Fine Clover Honey" category="77" did="1879061399" parentZoneId="1879470529" longitude="-135.64552" latitude="-0.3299414"/>
<marker id="1352511509" label="Bunch of Raspberries" category="77" did="1879061417" parentZoneId="1879470529" longitude="-135.64552" latitude="-0.3299414"/>
<marker id="1352511510" label="Tater" category="77" did="1879061257" parentZoneId="1879470529" longitude="-135.64552" latitude="-0.3299414"/>
<marker id="1352511511" label="Bunch of Blackberries" category="77" did="1879061418" parentZoneId="1879470529" longitude="-135.64552" latitude="-0.3299414"/>
<marker id="1352511512" label="Bunch of Blueberries" category="77" did="1879061342" parentZoneId="1879470529" longitude="-135.64552" latitude="-0.3299414"/>
<marker id="1352511513" label="Ribbon Snake" category="78" did="1879078078" parentZoneId="1879470529" longitude="-135.64552" latitude="-0.3299414"/>
<marker id="1352511514" label="Frog" category="78" did="1879086590" parentZoneId="1879470529" longitude="-135.64552" latitude="-0.3299414"/>
<marker id="1352511515" label="Turtle" category="78" did="1879250311" parentZoneId="1879470529" longitude="-135.65575" latitude="-0.18074219"/>
<marker id="1352511516" label="Indigo Plant" category="77" did="1879054949" parentZoneId="1879470529" longitude="-135.65575" latitude="-0.18074219"/>
<marker id="1352511517" label="Jerboa" category="78" did="1879478483" parentZoneId="1879470529" longitude="-135.65575" latitude="-0.18074219"/>
<marker id="1352511518" label="Bunch of Strawberries" category="77" did="1879061415" parentZoneId="1879470529" longitude="-135.65575" latitude="-0.18074219"/>
<marker id="1352511519" label="Drop of Fine Clover Honey" category="77" did="1879061399" parentZoneId="1879470529" longitude="-135.65575" latitude="-0.18074219"/>
<marker id="1352511520" label="Bunch of Raspberries" category="77" did="1879061417" parentZoneId="1879470529" longitude="-135.65575" latitude="-0.18074219"/>
<marker id="1352511521" label="Tater" category="77" did="1879061257" parentZoneId="1879470529" longitude="-135.65575" latitude="-0.18074219"/>
<marker id="1352511522" label="Bunch of Blackberries" category="77" did="1879061418" parentZoneId="1879470529" longitude="-135.65575" latitude="-0.18074219"/>
<marker id="1352511523" label="Bunch of Blueberries" category="77" did="1879061342" parentZoneId="1879470529" longitude="-135.65575" latitude="-0.18074219"/>
<marker id="1352511524" label="Ribbon Snake" category="78" did="1879078078" parentZoneId="1879470529" longitude="-135.65575" latitude="-0.18074219"/>
<marker id="1352511525" label="Frog" category="78" did="1879086590" parentZoneId="1879470529" longitude="-135.65575" latitude="-0.18074219"/>
<marker id="1352511526" label="Turtle" category="78" did="1879250311" parentZoneId="1879470529" longitude="-135.65091" latitude="-0.010234375"/>
<marker id="1352511527" label="Indigo Plant" category="77" did="1879054949" parentZoneId="1879470529" longitude="-135.65091" latitude="-0.010234375"/>
<marker id="1352511528" label="Jerboa" category="78" did="1879478483" parentZoneId="1879470529" longitude="-135.65091" latitude="-0.010234375"/>
<marker id="1352511529" label="Bunch of Strawberries" category="77" did="1879061415" parentZoneId="1879470529" longitude="-135.65091" latitude="-0.010234375"/>
<marker id="1352511530" label="Drop of Fine Clover Honey" category="77" did="1879061399" parentZoneId="1879470529" longitude="-135.65091" latitude="-0.010234375"/>
<marker id="1352511531" label="Bunch of Raspberries" category="77" did="1879061417" parentZoneId="1879470529" longitude="-135.65091" latitude="-0.010234375"/>
<marker id="1352511532" label="Tater" category="77" did="1879061257" parentZoneId="1879470529" longitude="-135.65091" latitude="-0.010234375"/>
<marker id="1352511533" label="Bunch of Blackberries" category="77" did="1879061418" parentZoneId="1879470529" longitude="-135.65091" latitude="-0.010234375"/>
<marker id="1352511534" label="Bunch of Blueberries" category="77" did="1879061342" parentZoneId="1879470529" longitude="-135.65091" latitude="-0.010234375"/>
<marker id="1352511535" label="Ribbon Snake" category="78" did="1879078078" parentZoneId="1879470529" longitude="-135.65091" latitude="-0.010234375"/>
<marker id="1352511536" label="Frog" category="78" did="1879086590" parentZoneId="1879470529" longitude="-135.65091" latitude="-0.010234375"/>
<marker id="1352511537" label="Turtle" category="78" did="1879250311" parentZoneId="1879470529" longitude="-136.15245" latitude="-0.297334"/>
<marker id="1352511538" label="Indigo Plant" category="77" did="1879054949" parentZoneId="1879470529" longitude="-136.15245" latitude="-0.297334"/>
<marker id="1352511539" label="Jerboa" category="78" did="1879478483" parentZoneId="1879470529" longitude="-136.15245" latitude="-0.297334"/>
<marker id="1352511540" label="Bunch of Strawberries" category="77" did="1879061415" parentZoneId="1879470529" longitude="-136.15245" latitude="-0.297334"/>
<marker id="1352511541" label="Drop of Fine Clover Honey" category="77" did="1879061399" parentZoneId="1879470529" longitude="-136.15245" latitude="-0.297334"/>
<marker id="1352511542" label="Bunch of Raspberries" category="77" did="1879061417" parentZoneId="1879470529" longitude="-136.15245" latitude="-0.297334"/>
<marker id="1352511543" label="Tater" category="77" did="1879061257" parentZoneId="1879470529" longitude="-136.15245" latitude="-0.297334"/>
<marker id="1352511544" label="Bunch of Blackberries" category="77" did="1879061418" parentZoneId="1879470529" longitude="-136.15245" latitude="-0.297334"/>
<marker id="1352511545" label="Bunch of Blueberries" category="77" did="1879061342" parentZoneId="1879470529" longitude="-136.15245" latitude="-0.297334"/>
<marker id="1352511546" label="Ribbon Snake" category="78" did="1879078078" parentZoneId="1879470529" longitude="-136.15245" latitude="-0.297334"/>
<marker id="1352511547" label="Frog" category="78" did="1879086590" parentZoneId="1879470529" longitude="-136.15245" latitude="-0.297334"/>
<marker id="1352511548" label="Turtle" category="78" did="1879250311" parentZoneId="1879470529" longitude="-136.04782" latitude="-0.10857422"/>
<marker id="1352511549" label="Indigo Plant" category="77" did="1879054949" parentZoneId="1879470529" longitude="-136.04782" latitude="-0.10857422"/>
<marker id="1352511550" label="Jerboa" category="78" did="1879478483" parentZoneId="1879470529" longitude="-136.04782" latitude="-0.10857422"/>
<marker id="1352511551" label="Bunch of Strawberries" category="77" did="1879061415" parentZoneId="1879470529" longitude="-136.04782" latitude="-0.10857422"/>
<marker id="1352511552" label="Drop of Fine Clover Honey" category="77" did="1879061399" parentZoneId="1879470529" longitude="-136.04782" latitude="-0.10857422"/>
<marker id="1352511553" label="Bunch of Raspberries" category="77" did="1879061417" parentZoneId="1879470529" longitude="-136.04782" latitude="-0.10857422"/>
<marker id="1352511554" label="Tater" category="77" did="1879061257" parentZoneId="1879470529" longitude="-136.04782" latitude="-0.10857422"/>
<marker id="1352511555" label="Bunch of Blackberries" category="77" did="1879061418" parentZoneId="1879470529" longitude="-136.04782" latitude="-0.10857422"/>
<marker id="1352511556" label="Bunch of Blueberries" category="77" did="1879061342" parentZoneId="1879470529" longitude="-136.04782" latitude="-0.10857422"/>
<marker id="1352511557" label="Ribbon Snake" category="78" did="1879078078" parentZoneId="1879470529" longitude="-136.04782" latitude="-0.10857422"/>
<marker id="1352511558" label="Frog" category="78" did="1879086590" parentZoneId="1879470529" longitude="-136.04782" latitude="-0.10857422"/>
<marker id="1352511559" label="Turtle" category="78" did="1879250311" parentZoneId="1879470529" longitude="-136.03282" latitude="0.030742187"/>
<marker id="1352511560" label="Indigo Plant" category="77" did="1879054949" parentZoneId="1879470529" longitude="-136.03282" latitude="0.030742187"/>
<marker id="1352511561" label="Jerboa" category="78" did="1879478483" parentZoneId="1879470529" longitude="-136.03282" latitude="0.030742187"/>
<marker id="1352511562" label="Bunch of Strawberries" category="77" did="1879061415" parentZoneId="1879470529" longitude="-136.03282" latitude="0.030742187"/>
<marker id="1352511563" label="Drop of Fine Clover Honey" category="77" did="1879061399" parentZoneId="1879470529" longitude="-136.03282" latitude="0.030742187"/>
<marker id="1352511564" label="Bunch of Raspberries" category="77" did="1879061417" parentZoneId="1879470529" longitude="-136.03282" latitude="0.030742187"/>
<marker id="1352511565" label="Tater" category="77" did="1879061257" parentZoneId="1879470529" longitude="-136.03282" latitude="0.030742187"/>
<marker id="1352511566" label="Bunch of Blackberries" category="77" did="1879061418" parentZoneId="1879470529" longitude="-136.03282" latitude="0.030742187"/>
<marker id="1352511567" label="Bunch of Blueberries" category="77" did="1879061342" parentZoneId="1879470529" longitude="-136.03282" latitude="0.030742187"/>
<marker id="1352511568" label="Ribbon Snake" category="78" did="1879078078" parentZoneId="1879470529" longitude="-136.03282" latitude="0.030742187"/>
<marker id="1352511569" label="Frog" category="78" did="1879086590" parentZoneId="1879470529" longitude="-136.03282" latitude="0.030742187"/>
<marker id="1352511570" label="Turtle" category="78" did="1879250311" parentZoneId="1879470529" longitude="-136.09178" latitude="0.31333008"/>
<marker id="1352511571" label="Indigo Plant" category="77" did="1879054949" parentZoneId="1879470529" longitude="-136.09178" latitude="0.31333008"/>
<marker id="1352511572" label="Jerboa" category="78" did="1879478483" parentZoneId="1879470529" longitude="-136.09178" latitude="0.31333008"/>
<marker id="1352511573" label="Bunch of Strawberries" category="77" did="1879061415" parentZoneId="1879470529" longitude="-136.09178" latitude="0.31333008"/>
<marker id="1352511574" label="Drop of Fine Clover Honey" category="77" did="1879061399" parentZoneId="1879470529" longitude="-136.09178" latitude="0.31333008"/>
<marker id="1352511575" label="Bunch of Raspberries" category="77" did="1879061417" parentZoneId="1879470529" longitude="-136.09178" latitude="0.31333008"/>
<marker id="1352511576" label="Tater" category="77" did="1879061257" parentZoneId="1879470529" longitude="-136.09178" latitude="0.31333008"/>
<marker id="1352511577" label="Bunch of Blackberries" category="77" did="1879061418" parentZoneId="1879470529" longitude="-136.09178" latitude="0.31333008"/>
<marker id="1352511578" label="Bunch of Blueberries" category="77" did="1879061342" parentZoneId="1879470529" longitude="-136.09178" latitude="0.31333008"/>
<marker id="1352511579" label="Ribbon Snake" category="78" did="1879078078" parentZoneId="1879470529" longitude="-136.09178" latitude="0.31333008"/>
<marker id="1352511580" label="Frog" category="78" did="1879086590" parentZoneId="1879470529" longitude="-136.09178" latitude="0.31333008"/>
<marker id="1352511581" label="Turtle" category="78" did="1879250311" parentZoneId="1879470529" longitude="-135.88933" latitude="0.29264647"/>
<marker id="1352511582" label="Indigo Plant" category="77" did="1879054949" parentZoneId="1879470529" longitude="-135.88933" latitude="0.29264647"/>
<marker id="1352511583" label="Jerboa" category="78" did="1879478483" parentZoneId="1879470529" longitude="-135.88933" latitude="0.29264647"/>
<marker id="1352511584" label="Bunch of Strawberries" category="77" did="1879061415" parentZoneId="1879470529" longitude="-135.88933" latitude="0.29264647"/>
<marker id="1352511585" label="Drop of Fine Clover Honey" category="77" did="1879061399" parentZoneId="1879470529" longitude="-135.88933" latitude="0.29264647"/>
<marker id="1352511586" label="Bunch of Raspberries" category="77" did="1879061417" parentZoneId="1879470529" longitude="-135.88933" latitude="0.29264647"/>
<marker id="1352511587" label="Tater" category="77" did="1879061257" parentZoneId="1879470529" longitude="-135.88933" latitude="0.29264647"/>
<marker id="1352511588" label="Bunch of Blackberries" category="77" did="1879061418" parentZoneId="1879470529" longitude="-135.88933" latitude="0.29264647"/>
<marker id="1352511589" label="Bunch of Blueberries" category="77" did="1879061342" parentZoneId="1879470529" longitude="-135.88933" latitude="0.29264647"/>
<marker id="1352511590" label="Ribbon Snake" category="78" did="1879078078" parentZoneId="1879470529" longitude="-135.88933" latitude="0.29264647"/>
<marker id="1352511591" label="Frog" category="78" did="1879086590" parentZoneId="1879470529" longitude="-135.88933" latitude="0.29264647"/>
<marker id="1352511592" label="Turtle" category="78" did="1879250311" parentZoneId="1879470529" longitude="-135.981" latitude="0.21074218"/>
<marker id="1352511593" label="Indigo Plant" category="77" did="1879054949" parentZoneId="1879470529" longitude="-135.981" latitude="0.21074218"/>
<marker id="1352511594" label="Jerboa" category="78" did="1879478483" parentZoneId="1879470529" longitude="-135.981" latitude="0.21074218"/>
<marker id="1352511595" label="Bunch of Strawberries" category="77" did="1879061415" parentZoneId="1879470529" longitude="-135.981" latitude="0.21074218"/>
<marker id="1352511596" label="Drop of Fine Clover Honey" category="77" did="1879061399" parentZoneId="1879470529" longitude="-135.981" latitude="0.21074218"/>
<marker id="1352511597" label="Bunch of Raspberries" category="77" did="1879061417" parentZoneId="1879470529" longitude="-135.981" latitude="0.21074218"/>
<marker id="1352511598" label="Tater" category="77" did="1879061257" parentZoneId="1879470529" longitude="-135.981" latitude="0.21074218"/>
<marker id="1352511599" label="Bunch of Blackberries" category="77" did="1879061418" parentZoneId="1879470529" longitude="-135.981" latitude="0.21074218"/>
<marker id="1352511600" label="Bunch of Blueberries" category="77" did="1879061342" parentZoneId="1879470529" longitude="-135.981" latitude="0.21074218"/>
<marker id="1352511601" label="Ribbon Snake" category="78" did="1879078078" parentZoneId="1879470529" longitude="-135.981" latitude="0.21074218"/>
<marker id="1352511602" label="Frog" category="78" did="1879086590" parentZoneId="1879470529" longitude="-135.981" latitude="0.21074218"/>
<marker id="1352511603" label="Turtle" category="78" did="1879250311" parentZoneId="1879470529" longitude="-135.81268" latitude="0.14636718"/>
<marker id="1352511604" label="Indigo Plant" category="77" did="1879054949" parentZoneId="1879470529" longitude="-135.81268" latitude="0.14636718"/>
<marker id="1352511605" label="Jerboa" category="78" did="1879478483" parentZoneId="1879470529" longitude="-135.81268" latitude="0.14636718"/>
<marker id="1352511606" label="Bunch of Strawberries" category="77" did="1879061415" parentZoneId="1879470529" longitude="-135.81268" latitude="0.14636718"/>
<marker id="1352511607" label="Drop of Fine Clover Honey" category="77" did="1879061399" parentZoneId="1879470529" longitude="-135.81268" latitude="0.14636718"/>
<marker id="1352511608" label="Bunch of Raspberries" category="77" did="1879061417" parentZoneId="1879470529" longitude="-135.81268" latitude="0.14636718"/>
<marker id="1352511609" label="Tater" category="77" did="1879061257" parentZoneId="1879470529" longitude="-135.81268" latitude="0.14636718"/>
<marker id="1352511610" label="Bunch of Blackberries" category="77" did="1879061418" parentZoneId="1879470529" longitude="-135.81268" latitude="0.14636718"/>
<marker id="1352511611" label="Bunch of Blueberries" category="77" did="1879061342" parentZoneId="1879470529" longitude="-135.81268" latitude="0.14636718"/>
<marker id="1352511612" label="Ribbon Snake" category="78" did="1879078078" parentZoneId="1879470529" longitude="-135.81268" latitude="0.14636718"/>
<marker id="1352511613" label="Frog" category="78" did="1879086590" parentZoneId="1879470529" longitude="-135.81268" latitude="0.14636718"/>
<marker id="1352511614" label="Turtle" category="78" did="1879250311" parentZoneId="1879470529" longitude="-135.70293" latitude="0.092041016"/>
<marker id="1352511615" label="Indigo Plant" category="77" did="1879054949" parentZoneId="1879470529" longitude="-135.70293" latitude="0.092041016"/>
<marker id="1352511616" label="Jerboa" category="78" did="1879478483" parentZoneId="1879470529" longitude="-135.70293" latitude="0.092041016"/>
<marker id="1352511617" label="Bunch of Strawberries" category="77" did="1879061415" parentZoneId="1879470529" longitude="-135.70293" latitude="0.092041016"/>
<marker id="1352511618" label="Drop of Fine Clover Honey" category="77" did="1879061399" parentZoneId="1879470529" longitude="-135.70293" latitude="0.092041016"/>
<marker id="1352511619" label="Bunch of Raspberries" category="77" did="1879061417" parentZoneId="1879470529" longitude="-135.70293" latitude="0.092041016"/>
<marker id="1352511620" label="Tater" category="77" did="1879061257" parentZoneId="1879470529" longitude="-135.70293" latitude="0.092041016"/>
<marker id="1352511621" label="Bunch of Blackberries" category="77" did="1879061418" parentZoneId="1879470529" longitude="-135.70293" latitude="0.092041016"/>
<marker id="1352511622" label="Bunch of Blueberries" category="77" did="1879061342" parentZoneId="1879470529" longitude="-135.70293" latitude="0.092041016"/>
<marker id="1352511623" label="Ribbon Snake" category="78" did="1879078078" parentZoneId="1879470529" longitude="-135.70293" latitude="0.092041016"/>
<marker id="1352511624" label="Frog" category="78" did="1879086590" parentZoneId="1879470529" longitude="-135.70293" latitude="0.092041016"/>
<marker id="1352511625" label="Turtle" category="78" did="1879250311" parentZoneId="1879470529" longitude="-135.87546" latitude="-0.15710936"/>
<marker id="1352511626" label="Indigo Plant" category="77" did="1879054949" parentZoneId="1879470529" longitude="-135.87546" latitude="-0.15710936"/>
<marker id="1352511627" label="Jerboa" category="78" did="1879478483" parentZoneId="1879470529" longitude="-135.87546" latitude="-0.15710936"/>
<marker id="1352511628" label="Bunch of Strawberries" category="77" did="1879061415" parentZoneId="1879470529" longitude="-135.87546" latitude="-0.15710936"/>
<marker id="1352511629" label="Drop of Fine Clover Honey" category="77" did="1879061399" parentZoneId="1879470529" longitude="-135.87546" latitude="-0.15710936"/>
<marker id="1352511630" label="Bunch of Raspberries" category="77" did="1879061417" parentZoneId="1879470529" longitude="-135.87546" latitude="-0.15710936"/>
<marker id="1352511631" label="Tater" category="77" did="1879061257" parentZoneId="1879470529" longitude="-135.87546" latitude="-0.15710936"/>
<marker id="1352511632" label="Bunch of Blackberries" category="77" did="1879061418" parentZoneId="1879470529" longitude="-135.87546" latitude="-0.15710936"/>
<marker id="1352511633" label="Bunch of Blueberries" category="77" did="1879061342" parentZoneId="1879470529" longitude="-135.87546" latitude="-0.15710936"/>
<marker id="1352511634" label="Ribbon Snake" category="78" did="1879078078" parentZoneId="1879470529" longitude="-135.87546" latitude="-0.15710936"/>
<marker id="1352511635" label="Frog" category="78" did="1879086590" parentZoneId="1879470529" longitude="-135.87546" latitude="-0.15710936"/>
<marker id="1352511636" label="Turtle" category="78" did="1879250311" parentZoneId="1879470529" longitude="-135.7449" latitude="-0.2870996"/>
<marker id="1352511637" label="Indigo Plant" category="77" did="1879054949" parentZoneId="1879470529" longitude="-135.7449" latitude="-0.2870996"/>
<marker id="1352511638" label="Jerboa" category="78" did="1879478483" parentZoneId="1879470529" longitude="-135.7449" latitude="-0.2870996"/>
<marker id="1352511639" label="Bunch of Strawberries" category="77" did="1879061415" parentZoneId="1879470529" longitude="-135.7449" latitude="-0.2870996"/>
<marker id="1352511640" label="Drop of Fine Clover Honey" category="77" did="1879061399" parentZoneId="1879470529" longitude="-135.7449" latitude="-0.2870996"/>
<marker id="1352511641" label="Bunch of Raspberries" category="77" did="1879061417" parentZoneId="1879470529" longitude="-135.7449" latitude="-0.2870996"/>
<marker id="1352511642" label="Tater" category="77" did="1879061257" parentZoneId="1879470529" longitude="-135.7449" latitude="-0.2870996"/>
<marker id="1352511643" label="Bunch of Blackberries" category="77" did="1879061418" parentZoneId="1879470529" longitude="-135.7449" latitude="-0.2870996"/>
<marker id="1352511644" label="Bunch of Blueberries" category="77" did="1879061342" parentZoneId="1879470529" longitude="-135.7449" latitude="-0.2870996"/>
<marker id="1352511645" label="Ribbon Snake" category="78" did="1879078078" parentZoneId="1879470529" longitude="-135.7449" latitude="-0.2870996"/>
<marker id="1352511646" label="Frog" category="78" did="1879086590" parentZoneId="1879470529" longitude="-135.7449" latitude="-0.2870996"/>
<marker id="1352511647" label="Turtle" category="78" did="1879250311" parentZoneId="1879470529" longitude="-136.0686" latitude="-0.21238281"/>
<marker id="1352511648" label="Indigo Plant" category="77" did="1879054949" parentZoneId="1879470529" longitude="-136.0686" latitude="-0.21238281"/>
<marker id="1352511649" label="Jerboa" category="78" did="1879478483" parentZoneId="1879470529" longitude="-136.0686" latitude="-0.21238281"/>
<marker id="1352511650" label="Bunch of Strawberries" category="77" did="1879061415" parentZoneId="1879470529" longitude="-136.0686" latitude="-0.21238281"/>
<marker id="1352511651" label="Drop of Fine Clover Honey" category="77" did="1879061399" parentZoneId="1879470529" longitude="-136.0686" latitude="-0.21238281"/>
<marker id="1352511652" label="Bunch of Raspberries" category="77" did="1879061417" parentZoneId="1879470529" longitude="-136.0686" latitude="-0.21238281"/>
<marker id="1352511653" label="Tater" category="77" did="1879061257" parentZoneId="1879470529" longitude="-136.0686" latitude="-0.21238281"/>
<marker id="1352511654" label="Bunch of Blackberries" category="77" did="1879061418" parentZoneId="1879470529" longitude="-136.0686" latitude="-0.21238281"/>
<marker id="1352511655" label="Bunch of Blueberries" category="77" did="1879061342" parentZoneId="1879470529" longitude="-136.0686" latitude="-0.21238281"/>
<marker id="1352511656" label="Ribbon Snake" category="78" did="1879078078" parentZoneId="1879470529" longitude="-136.0686" latitude="-0.21238281"/>
<marker id="1352511657" label="Frog" category="78" did="1879086590" parentZoneId="1879470529" longitude="-136.0686" latitude="-0.21238281"/>
<marker id="1352511658" label="Turtle" category="78" did="1879250311" parentZoneId="1879470529" longitude="-136.01044" latitude="0.23674804"/>
<marker id="1352511659" label="Indigo Plant" category="77" did="1879054949" parentZoneId="1879470529" longitude="-136.01044" latitude="0.23674804"/>
<marker id="1352511660" label="Jerboa" category="78" did="1879478483" parentZoneId="1879470529" longitude="-136.01044" latitude="0.23674804"/>
<marker id="1352511661" label="Bunch of Strawberries" category="77" did="1879061415" parentZoneId="1879470529" longitude="-136.01044" latitude="0.23674804"/>
<marker id="1352511662" label="Drop of Fine Clover Honey" category="77" did="1879061399" parentZoneId="1879470529" longitude="-136.01044" latitude="0.23674804"/>
<marker id="1352511663" label="Bunch of Raspberries" category="77" did="1879061417" parentZoneId="1879470529" longitude="-136.01044" latitude="0.23674804"/>
<marker id="1352511664" label="Tater" category="77" did="1879061257" parentZoneId="1879470529" longitude="-136.01044" latitude="0.23674804"/>
<marker id="1352511665" label="Bunch of Blackberries" category="77" did="1879061418" parentZoneId="1879470529" longitude="-136.01044" latitude="0.23674804"/>
<marker id="1352511666" label="Bunch of Blueberries" category="77" did="1879061342" parentZoneId="1879470529" longitude="-136.01044" latitude="0.23674804"/>
<marker id="1352511667" label="Ribbon Snake" category="78" did="1879078078" parentZoneId="1879470529" longitude="-136.01044" latitude="0.23674804"/>
<marker id="1352511668" label="Frog" category="78" did="1879086590" parentZoneId="1879470529" longitude="-136.01044" latitude="0.23674804"/>
<marker id="1352511669" label="Turtle" category="78" did="1879250311" parentZoneId="1879470529" longitude="-135.69806" latitude="0.11568359"/>
<marker id="1352511670" label="Indigo Plant" category="77" did="1879054949" parentZoneId="1879470529" longitude="-135.69806" latitude="0.11568359"/>
<marker id="1352511671" label="Jerboa" category="78" did="1879478483" parentZoneId="1879470529" longitude="-135.69806" latitude="0.11568359"/>
<marker id="1352511672" label="Bunch of Strawberries" category="77" did="1879061415" parentZoneId="1879470529" longitude="-135.69806" latitude="0.11568359"/>
<marker id="1352511673" label="Drop of Fine Clover Honey" category="77" did="1879061399" parentZoneId="1879470529" longitude="-135.69806" latitude="0.11568359"/>
<marker id="1352511674" label="Bunch of Raspberries" category="77" did="1879061417" parentZoneId="1879470529" longitude="-135.69806" latitude="0.11568359"/>
<marker id="1352511675" label="Tater" category="77" did="1879061257" parentZoneId="1879470529" longitude="-135.69806" latitude="0.11568359"/>
<marker id="1352511676" label="Bunch of Blackberries" category="77" did="1879061418" parentZoneId="1879470529" longitude="-135.69806" latitude="0.11568359"/>
<marker id="1352511677" label="Bunch of Blueberries" category="77" did="1879061342" parentZoneId="1879470529" longitude="-135.69806" latitude="0.11568359"/>
<marker id="1352511678" label="Ribbon Snake" category="78" did="1879078078" parentZoneId="1879470529" longitude="-135.69806" latitude="0.11568359"/>
<marker id="1352511679" label="Frog" category="78" did="1879086590" parentZoneId="1879470529" longitude="-135.69806" latitude="0.11568359"/>
<marker id="1352515584" label="Wild Boar" category="71" did="1879475086" parentZoneId="1879470529" longitude="-135.82884" latitude="0.72950196"/>
<marker id="1352515585" label="Stone-lizard" category="71" did="1879475087" parentZoneId="1879470529" longitude="-135.82884" latitude="0.72950196"/>
<marker id="1352515586" label="Jeb Khâtel Sabre-tooth" category="71" did="1879475090" parentZoneId="1879470529" longitude="-135.82884" latitude="0.72950196"/>
<marker id="1352515587" label="Jeb Khâtel Cliff-darter" category="71" did="1879475102" parentZoneId="1879470529" longitude="-135.82884" latitude="0.72950196"/>
<marker id="1352515588" label="Jeb Khâtel Sea-leech" category="71" did="1879475101" parentZoneId="1879470529" longitude="-135.82884" latitude="0.72950196"/>
<marker id="1352515597" label="Iridescent Ore Deposit" category="50" did="1879474054" parentZoneId="1879470529" longitude="-135.82051" latitude="0.73185545"/>
<marker id="1352515598" label="Heavy Palm Branches" category="50" did="1879474052" parentZoneId="1879470529" longitude="-135.82051" latitude="0.73185545"/>
<marker id="1352515599" label="Palm Branches" category="50" did="1879474053" parentZoneId="1879470529" longitude="-135.82051" latitude="0.73185545"/>
<marker id="1352515600" label="Rich Iridescent Ore Deposit" category="50" did="1879474050" parentZoneId="1879470529" longitude="-135.82051" latitude="0.73185545"/>
<marker id="1352515601" label="Iridescent Ore Deposit" category="50" did="1879474054" parentZoneId="1879470529" longitude="-135.62529" latitude="0.59453124"/>
<marker id="1352515602" label="Heavy Palm Branches" category="50" did="1879474052" parentZoneId="1879470529" longitude="-135.62529" latitude="0.59453124"/>
<marker id="1352515603" label="Palm Branches" category="50" did="1879474053" parentZoneId="1879470529" longitude="-135.62529" latitude="0.59453124"/>
<marker id="1352515604" label="Rich Iridescent Ore Deposit" category="50" did="1879474050" parentZoneId="1879470529" longitude="-135.62529" latitude="0.59453124"/>
<marker id="1352515605" label="Iridescent Ore Deposit" category="50" did="1879474054" parentZoneId="1879470529" longitude="-135.79135" latitude="0.63274413"/>
<marker id="1352515606" label="Heavy Palm Branches" category="50" did="1879474052" parentZoneId="1879470529" longitude="-135.79135" latitude="0.63274413"/>
<marker id="1352515607" label="Palm Branches" category="50" did="1879474053" parentZoneId="1879470529" longitude="-135.79135" latitude="0.63274413"/>
<marker id="1352515608" label="Rich Iridescent Ore Deposit" category="50" did="1879474050" parentZoneId="1879470529" longitude="-135.79135" latitude="0.63274413"/>
<marker id="1352515609" label="Iridescent Ore Deposit" category="50" did="1879474054" parentZoneId="1879470529" longitude="-135.8178" latitude="0.45501953"/>
<marker id="1352515610" label="Heavy Palm Branches" category="50" did="1879474052" parentZoneId="1879470529" longitude="-135.8178" latitude="0.45501953"/>
<marker id="1352515611" label="Palm Branches" category="50" did="1879474053" parentZoneId="1879470529" longitude="-135.8178" latitude="0.45501953"/>
<marker id="1352515612" label="Rich Iridescent Ore Deposit" category="50" did="1879474050" parentZoneId="1879470529" longitude="-135.8178" latitude="0.45501953"/>
<marker id="1352515613" label="Iridescent Ore Deposit" category="50" did="1879474054" parentZoneId="1879470529" longitude="-135.99901" latitude="0.5550098"/>
<marker id="1352515614" label="Heavy Palm Branches" category="50" did="1879474052" parentZoneId="1879470529" longitude="-135.99901" latitude="0.5550098"/>
<marker id="1352515615" label="Palm Branches" category="50" did="1879474053" parentZoneId="1879470529" longitude="-135.99901" latitude="0.5550098"/>
<marker id="1352515616" label="Rich Iridescent Ore Deposit" category="50" did="1879474050" parentZoneId="1879470529" longitude="-135.99901" latitude="0.5550098"/>
<marker id="1352515617" label="Iridescent Ore Deposit" category="50" did="1879474054" parentZoneId="1879470529" longitude="-136.09895" latitude="0.89906245"/>
<marker id="1352515618" label="Heavy Palm Branches" category="50" did="1879474052" parentZoneId="1879470529" longitude="-136.09895" latitude="0.89906245"/>
<marker id="1352515619" label="Palm Branches" category="50" did="1879474053" parentZoneId="1879470529" longitude="-136.09895" latitude="0.89906245"/>
<marker id="1352515620" label="Rich Iridescent Ore Deposit" category="50" did="1879474050" parentZoneId="1879470529" longitude="-136.09895" latitude="0.89906245"/>
<marker id="1352515621" label="Iridescent Ore Deposit" category="50" did="1879474054" parentZoneId="1879470529" longitude="-135.91093" latitude="0.46533203"/>
<marker id="1352515622" label="Heavy Palm Branches" category="50" did="1879474052" parentZoneId="1879470529" longitude="-135.91093" latitude="0.46533203"/>
<marker id="1352515623" label="Palm Branches" category="50" did="1879474053" parentZoneId="1879470529" longitude="-135.91093" latitude="0.46533203"/>
<marker id="1352515624" label="Rich Iridescent Ore Deposit" category="50" did="1879474050" parentZoneId="1879470529" longitude="-135.91093" latitude="0.46533203"/>
<marker id="1352515625" label="Iridescent Ore Deposit" category="50" did="1879474054" parentZoneId="1879470529" longitude="-136.12091" latitude="0.62981445"/>
<marker id="1352515626" label="Heavy Palm Branches" category="50" did="1879474052" parentZoneId="1879470529" longitude="-136.12091" latitude="0.62981445"/>
<marker id="1352515627" label="Palm Branches" category="50" did="1879474053" parentZoneId="1879470529" longitude="-136.12091" latitude="0.62981445"/>
<marker id="1352515628" label="Rich Iridescent Ore Deposit" category="50" did="1879474050" parentZoneId="1879470529" longitude="-136.12091" latitude="0.62981445"/>
<marker id="1352515629" label="Iridescent Ore Deposit" category="50" did="1879474054" parentZoneId="1879470529" longitude="-136.11566" latitude="0.80216795"/>
<marker id="1352515630" label="Heavy Palm Branches" category="50" did="1879474052" parentZoneId="1879470529" longitude="-136.11566" latitude="0.80216795"/>
<marker id="1352515631" label="Palm Branches" category="50" did="1879474053" parentZoneId="1879470529" longitude="-136.11566" latitude="0.80216795"/>
<marker id="1352515632" label="Rich Iridescent Ore Deposit" category="50" did="1879474050" parentZoneId="1879470529" longitude="-136.11566" latitude="0.80216795"/>
<marker id="1352515633" label="Iridescent Ore Deposit" category="50" did="1879474054" parentZoneId="1879470529" longitude="-135.96867" latitude="0.97984374"/>
<marker id="1352515634" label="Heavy Palm Branches" category="50" did="1879474052" parentZoneId="1879470529" longitude="-135.96867" latitude="0.97984374"/>
<marker id="1352515635" label="Palm Branches" category="50" did="1879474053" parentZoneId="1879470529" longitude="-135.96867" latitude="0.97984374"/>
<marker id="1352515636" label="Rich Iridescent Ore Deposit" category="50" did="1879474050" parentZoneId="1879470529" longitude="-135.96867" latitude="0.97984374"/>
<marker id="1352515637" label="Iridescent Ore Deposit" category="50" did="1879474054" parentZoneId="1879470529" longitude="-135.67905" latitude="0.790293"/>
<marker id="1352515638" label="Heavy Palm Branches" category="50" did="1879474052" parentZoneId="1879470529" longitude="-135.67905" latitude="0.790293"/>
<marker id="1352515639" label="Palm Branches" category="50" did="1879474053" parentZoneId="1879470529" longitude="-135.67905" latitude="0.790293"/>
<marker id="1352515640" label="Rich Iridescent Ore Deposit" category="50" did="1879474050" parentZoneId="1879470529" longitude="-135.67905" latitude="0.790293"/>
<marker id="1352515641" label="Turtle" category="78" did="1879250311" parentZoneId="1879470529" longitude="-135.61412" latitude="0.44813475"/>
<marker id="1352515642" label="Indigo Plant" category="77" did="1879054949" parentZoneId="1879470529" longitude="-135.61412" latitude="0.44813475"/>
<marker id="1352515643" label="Jerboa" category="78" did="1879478483" parentZoneId="1879470529" longitude="-135.61412" latitude="0.44813475"/>
<marker id="1352515644" label="Bunch of Strawberries" category="77" did="1879061415" parentZoneId="1879470529" longitude="-135.61412" latitude="0.44813475"/>
<marker id="1352515645" label="Drop of Fine Clover Honey" category="77" did="1879061399" parentZoneId="1879470529" longitude="-135.61412" latitude="0.44813475"/>
<marker id="1352515646" label="Bunch of Raspberries" category="77" did="1879061417" parentZoneId="1879470529" longitude="-135.61412" latitude="0.44813475"/>
<marker id="1352515647" label="Tater" category="77" did="1879061257" parentZoneId="1879470529" longitude="-135.61412" latitude="0.44813475"/>
<marker id="1352515648" label="Bunch of Blackberries" category="77" did="1879061418" parentZoneId="1879470529" longitude="-135.61412" latitude="0.44813475"/>
<marker id="1352515649" label="Bunch of Blueberries" category="77" did="1879061342" parentZoneId="1879470529" longitude="-135.61412" latitude="0.44813475"/>
<marker id="1352515650" label="Ribbon Snake" category="78" did="1879078078" parentZoneId="1879470529" longitude="-135.61412" latitude="0.44813475"/>
<marker id="1352515651" label="Frog" category="78" did="1879086590" parentZoneId="1879470529" longitude="-135.61412" latitude="0.44813475"/>
<marker id="1352515652" label="Turtle" category="78" did="1879250311" parentZoneId="1879470529" longitude="-135.60847" latitude="0.6145898"/>
<marker id="1352515653" label="Indigo Plant" category="77" did="1879054949" parentZoneId="1879470529" longitude="-135.60847" latitude="0.6145898"/>
<marker id="1352515654" label="Jerboa" category="78" did="1879478483" parentZoneId="1879470529" longitude="-135.60847" latitude="0.6145898"/>
<marker id="1352515655" label="Bunch of Strawberries" category="77" did="1879061415" parentZoneId="1879470529" longitude="-135.60847" latitude="0.6145898"/>
<marker id="1352515656" label="Drop of Fine Clover Honey" category="77" did="1879061399" parentZoneId="1879470529" longitude="-135.60847" latitude="0.6145898"/>
<marker id="1352515657" label="Bunch of Raspberries" category="77" did="1879061417" parentZoneId="1879470529" longitude="-135.60847" latitude="0.6145898"/>
<marker id="1352515658" label="Tater" category="77" did="1879061257" parentZoneId="1879470529" longitude="-135.60847" latitude="0.6145898"/>
<marker id="1352515659" label="Bunch of Blackberries" category="77" did="1879061418" parentZoneId="1879470529" longitude="-135.60847" latitude="0.6145898"/>
<marker id="1352515660" label="Bunch of Blueberries" category="77" did="1879061342" parentZoneId="1879470529" longitude="-135.60847" latitude="0.6145898"/>
<marker id="1352515661" label="Ribbon Snake" category="78" did="1879078078" parentZoneId="1879470529" longitude="-135.60847" latitude="0.6145898"/>
<marker id="1352515662" label="Frog" category="78" did="1879086590" parentZoneId="1879470529" longitude="-135.60847" latitude="0.6145898"/>
<marker id="1352515663" label="Turtle" category="78" did="1879250311" parentZoneId="1879470529" longitude="-135.67369" latitude="0.73213863"/>
<marker id="1352515664" label="Indigo Plant" category="77" did="1879054949" parentZoneId="1879470529" longitude="-135.67369" latitude="0.73213863"/>
<marker id="1352515665" label="Jerboa" category="78" did="1879478483" parentZoneId="1879470529" longitude="-135.67369" latitude="0.73213863"/>
<marker id="1352515666" label="Bunch of Strawberries" category="77" did="1879061415" parentZoneId="1879470529" longitude="-135.67369" latitude="0.73213863"/>
<marker id="1352515667" label="Drop of Fine Clover Honey" category="77" did="1879061399" parentZoneId="1879470529" longitude="-135.67369" latitude="0.73213863"/>
<marker id="1352515668" label="Bunch of Raspberries" category="77" did="1879061417" parentZoneId="1879470529" longitude="-135.67369" latitude="0.73213863"/>
<marker id="1352515669" label="Tater" category="77" did="1879061257" parentZoneId="1879470529" longitude="-135.67369" latitude="0.73213863"/>
<marker id="1352515670" label="Bunch of Blackberries" category="77" did="1879061418" parentZoneId="1879470529" longitude="-135.67369" latitude="0.73213863"/>
<marker id="1352515671" label="Bunch of Blueberries" category="77" did="1879061342" parentZoneId="1879470529" longitude="-135.67369" latitude="0.73213863"/>
<marker id="1352515672" label="Ribbon Snake" category="78" did="1879078078" parentZoneId="1879470529" longitude="-135.67369" latitude="0.73213863"/>
<marker id="1352515673" label="Frog" category="78" did="1879086590" parentZoneId="1879470529" longitude="-135.67369" latitude="0.73213863"/>
<marker id="1352515674" label="Turtle" category="78" did="1879250311" parentZoneId="1879470529" longitude="-135.78639" latitude="0.85017574"/>
<marker id="1352515675" label="Indigo Plant" category="77" did="1879054949" parentZoneId="1879470529" longitude="-135.78639" latitude="0.85017574"/>
<marker id="1352515676" label="Jerboa" category="78" did="1879478483" parentZoneId="1879470529" longitude="-135.78639" latitude="0.85017574"/>
<marker id="1352515677" label="Bunch of Strawberries" category="77" did="1879061415" parentZoneId="1879470529" longitude="-135.78639" latitude="0.85017574"/>
<marker id="1352515678" label="Drop of Fine Clover Honey" category="77" did="1879061399" parentZoneId="1879470529" longitude="-135.78639" latitude="0.85017574"/>
<marker id="1352515679" label="Bunch of Raspberries" category="77" did="1879061417" parentZoneId="1879470529" longitude="-135.78639" latitude="0.85017574"/>
<marker id="1352515680" label="Tater" category="77" did="1879061257" parentZoneId="1879470529" longitude="-135.78639" latitude="0.85017574"/>
<marker id="1352515681" label="Bunch of Blackberries" category="77" did="1879061418" parentZoneId="1879470529" longitude="-135.78639" latitude="0.85017574"/>
<marker id="1352515682" label="Bunch of Blueberries" category="77" did="1879061342" parentZoneId="1879470529" longitude="-135.78639" latitude="0.85017574"/>
<marker id="1352515683" label="Ribbon Snake" category="78" did="1879078078" parentZoneId="1879470529" longitude="-135.78639" latitude="0.85017574"/>
<marker id="1352515684" label="Frog" category="78" did="1879086590" parentZoneId="1879470529" longitude="-135.78639" latitude="0.85017574"/>
<marker id="1352515685" label="Turtle" category="78" did="1879250311" parentZoneId="1879470529" longitude="-135.84422" latitude="0.43447265"/>
<marker id="1352515686" label="Indigo Plant" category="77" did="1879054949" parentZoneId="1879470529" longitude="-135.84422" latitude="0.43447265"/>
<marker id="1352515687" label="Jerboa" category="78" did="1879478483" parentZoneId="1879470529" longitude="-135.84422" latitude="0.43447265"/>
<marker id="1352515688" label="Bunch of Strawberries" category="77" did="1879061415" parentZoneId="1879470529" longitude="-135.84422" latitude="0.43447265"/>
<marker id="1352515689" label="Drop of Fine Clover Honey" category="77" did="1879061399" parentZoneId="1879470529" longitude="-135.84422" latitude="0.43447265"/>
<marker id="1352515690" label="Bunch of Raspberries" category="77" did="1879061417" parentZoneId="1879470529" longitude="-135.84422" latitude="0.43447265"/>
<marker id="1352515691" label="Tater" category="77" did="1879061257" parentZoneId="1879470529" longitude="-135.84422" latitude="0.43447265"/>
<marker id="1352515692" label="Bunch of Blackberries" category="77" did="1879061418" parentZoneId="1879470529" longitude="-135.84422" latitude="0.43447265"/>
<marker id="1352515693" label="Bunch of Blueberries" category="77" did="1879061342" parentZoneId="1879470529" longitude="-135.84422" latitude="0.43447265"/>
<marker id="1352515694" label="Ribbon Snake" category="78" did="1879078078" parentZoneId="1879470529" longitude="-135.84422" latitude="0.43447265"/>
<marker id="1352515695" label="Frog" category="78" did="1879086590" parentZoneId="1879470529" longitude="-135.84422" latitude="0.43447265"/>
<marker id="1352515696" label="Turtle" category="78" did="1879250311" parentZoneId="1879470529" longitude="-135.8884" latitude="0.58000976"/>
<marker id="1352515697" label="Indigo Plant" category="77" did="1879054949" parentZoneId="1879470529" longitude="-135.8884" latitude="0.58000976"/>
<marker id="1352515698" label="Jerboa" category="78" did="1879478483" parentZoneId="1879470529" longitude="-135.8884" latitude="0.58000976"/>
<marker id="1352515699" label="Bunch of Strawberries" category="77" did="1879061415" parentZoneId="1879470529" longitude="-135.8884" latitude="0.58000976"/>
<marker id="1352515700" label="Drop of Fine Clover Honey" category="77" did="1879061399" parentZoneId="1879470529" longitude="-135.8884" latitude="0.58000976"/>
<marker id="1352515701" label="Bunch of Raspberries" category="77" did="1879061417" parentZoneId="1879470529" longitude="-135.8884" latitude="0.58000976"/>
<marker id="1352515702" label="Tater" category="77" did="1879061257" parentZoneId="1879470529" longitude="-135.8884" latitude="0.58000976"/>
<marker id="1352515703" label="Bunch of Blackberries" category="77" did="1879061418" parentZoneId="1879470529" longitude="-135.8884" latitude="0.58000976"/>
<marker id="1352515704" label="Bunch of Blueberries" category="77" did="1879061342" parentZoneId="1879470529" longitude="-135.8884" latitude="0.58000976"/>
<marker id="1352515705" label="Ribbon Snake" category="78" did="1879078078" parentZoneId="1879470529" longitude="-135.8884" latitude="0.58000976"/>
<marker id="1352515706" label="Frog" category="78" did="1879086590" parentZoneId="1879470529" longitude="-135.8884" latitude="0.58000976"/>
<marker id="1352515707" label="Turtle" category="78" did="1879250311" parentZoneId="1879470529" longitude="-135.89769" latitude="0.75130856"/>
<marker id="1352515708" label="Indigo Plant" category="77" did="1879054949" parentZoneId="1879470529" longitude="-135.89769" latitude="0.75130856"/>
<marker id="1352515709" label="Jerboa" category="78" did="1879478483" parentZoneId="1879470529" longitude="-135.89769" latitude="0.75130856"/>
<marker id="1352515710" label="Bunch of Strawberries" category="77" did="1879061415" parentZoneId="1879470529" longitude="-135.89769" latitude="0.75130856"/>
<marker id="1352515711" label="Drop of Fine Clover Honey" category="77" did="1879061399" parentZoneId="1879470529" longitude="-135.89769" latitude="0.75130856"/>
<marker id="1352515712" label="Bunch of Raspberries" category="77" did="1879061417" parentZoneId="1879470529" longitude="-135.89769" latitude="0.75130856"/>
<marker id="1352515713" label="Tater" category="77" did="1879061257" parentZoneId="1879470529" longitude="-135.89769" latitude="0.75130856"/>
<marker id="1352515714" label="Bunch of Blackberries" category="77" did="1879061418" parentZoneId="1879470529" longitude="-135.89769" latitude="0.75130856"/>
<marker id="1352515715" label="Bunch of Blueberries" category="77" did="1879061342" parentZoneId="1879470529" longitude="-135.89769" latitude="0.75130856"/>
<marker id="1352515716" label="Ribbon Snake" category="78" did="1879078078" parentZoneId="1879470529" longitude="-135.89769" latitude="0.75130856"/>
<marker id="1352515717" label="Frog" category="78" did="1879086590" parentZoneId="1879470529" longitude="-135.89769" latitude="0.75130856"/>
<marker id="1352515718" label="Turtle" category="78" did="1879250311" parentZoneId="1879470529" longitude="-136.06142" latitude="0.60494137"/>
<marker id="1352515719" label="Indigo Plant" category="77" did="1879054949" parentZoneId="1879470529" longitude="-136.06142" latitude="0.60494137"/>
<marker id="1352515720" label="Jerboa" category="78" did="1879478483" parentZoneId="1879470529" longitude="-136.06142" latitude="0.60494137"/>
<marker id="1352515721" label="Bunch of Strawberries" category="77" did="1879061415" parentZoneId="1879470529" longitude="-136.06142" latitude="0.60494137"/>
<marker id="1352515722" label="Drop of Fine Clover Honey" category="77" did="1879061399" parentZoneId="1879470529" longitude="-136.06142" latitude="0.60494137"/>
<marker id="1352515723" label="Bunch of Raspberries" category="77" did="1879061417" parentZoneId="1879470529" longitude="-136.06142" latitude="0.60494137"/>
<marker id="1352515724" label="Tater" category="77" did="1879061257" parentZoneId="1879470529" longitude="-136.06142" latitude="0.60494137"/>
<marker id="1352515725" label="Bunch of Blackberries" category="77" did="1879061418" parentZoneId="1879470529" longitude="-136.06142" latitude="0.60494137"/>
<marker id="1352515726" label="Bunch of Blueberries" category="77" did="1879061342" parentZoneId="1879470529" longitude="-136.06142" latitude="0.60494137"/>
<marker id="1352515727" label="Ribbon Snake" category="78" did="1879078078" parentZoneId="1879470529" longitude="-136.06142" latitude="0.60494137"/>
<marker id="1352515728" label="Frog" category="78" did="1879086590" parentZoneId="1879470529" longitude="-136.06142" latitude="0.60494137"/>
<marker id="1352515729" label="Turtle" category="78" did="1879250311" parentZoneId="1879470529" longitude="-136.04933" latitude="0.76551753"/>
<marker id="1352515730" label="Indigo Plant" category="77" did="1879054949" parentZoneId="1879470529" longitude="-136.04933" latitude="0.76551753"/>
<marker id="1352515731" label="Jerboa" category="78" did="1879478483" parentZoneId="1879470529" longitude="-136.04933" latitude="0.76551753"/>
<marker id="1352515732" label="Bunch of Strawberries" category="77" did="1879061415" parentZoneId="1879470529" longitude="-136.04933" latitude="0.76551753"/>
<marker id="1352515733" label="Drop of Fine Clover Honey" category="77" did="1879061399" parentZoneId="1879470529" longitude="-136.04933" latitude="0.76551753"/>
<marker id="1352515734" label="Bunch of Raspberries" category="77" did="1879061417" parentZoneId="1879470529" longitude="-136.04933" latitude="0.76551753"/>
<marker id="1352515735" label="Tater" category="77" did="1879061257" parentZoneId="1879470529" longitude="-136.04933" latitude="0.76551753"/>
<marker id="1352515736" label="Bunch of Blackberries" category="77" did="1879061418" parentZoneId="1879470529" longitude="-136.04933" latitude="0.76551753"/>
<marker id="1352515737" label="Bunch of Blueberries" category="77" did="1879061342" parentZoneId="1879470529" longitude="-136.04933" latitude="0.76551753"/>
<marker id="1352515738" label="Ribbon Snake" category="78" did="1879078078" parentZoneId="1879470529" longitude="-136.04933" latitude="0.76551753"/>
<marker id="1352515739" label="Frog" category="78" did="1879086590" parentZoneId="1879470529" longitude="-136.04933" latitude="0.76551753"/>
<marker id="1352515740" label="Turtle" category="78" did="1879250311" parentZoneId="1879470529" longitude="-136.00133" latitude="0.8864453"/>
<marker id="1352515741" label="Indigo Plant" category="77" did="1879054949" parentZoneId="1879470529" longitude="-136.00133" latitude="0.8864453"/>
<marker id="1352515742" label="Jerboa" category="78" did="1879478483" parentZoneId="1879470529" longitude="-136.00133" latitude="0.8864453"/>
<marker id="1352515743" label="Bunch of Strawberries" category="77" did="1879061415" parentZoneId="1879470529" longitude="-136.00133" latitude="0.8864453"/>
<marker id="1352515744" label="Drop of Fine Clover Honey" category="77" did="1879061399" parentZoneId="1879470529" longitude="-136.00133" latitude="0.8864453"/>
<marker id="1352515745" label="Bunch of Raspberries" category="77" did="1879061417" parentZoneId="1879470529" longitude="-136.00133" latitude="0.8864453"/>
<marker id="1352515746" label="Tater" category="77" did="1879061257" parentZoneId="1879470529" longitude="-136.00133" latitude="0.8864453"/>
<marker id="1352515747" label="Bunch of Blackberries" category="77" did="1879061418" parentZoneId="1879470529" longitude="-136.00133" latitude="0.8864453"/>
<marker id="1352515748" label="Bunch of Blueberries" category="77" did="1879061342" parentZoneId="1879470529" longitude="-136.00133" latitude="0.8864453"/>
<marker id="1352515749" label="Ribbon Snake" category="78" did="1879078078" parentZoneId="1879470529" longitude="-136.00133" latitude="0.8864453"/>
<marker id="1352515750" label="Frog" category="78" did="1879086590" parentZoneId="1879470529" longitude="-136.00133" latitude="0.8864453"/>
<marker id="1352515751" label="Turtle" category="78" did="1879250311" parentZoneId="1879470529" longitude="-135.86974" latitude="0.8977441"/>
<marker id="1352515752" label="Indigo Plant" category="77" did="1879054949" parentZoneId="1879470529" longitude="-135.86974" latitude="0.8977441"/>
<marker id="1352515753" label="Jerboa" category="78" did="1879478483" parentZoneId="1879470529" longitude="-135.86974" latitude="0.8977441"/>
<marker id="1352515754" label="Bunch of Strawberries" category="77" did="1879061415" parentZoneId="1879470529" longitude="-135.86974" latitude="0.8977441"/>
<marker id="1352515755" label="Drop of Fine Clover Honey" category="77" did="1879061399" parentZoneId="1879470529" longitude="-135.86974" latitude="0.8977441"/>
<marker id="1352515756" label="Bunch of Raspberries" category="77" did="1879061417" parentZoneId="1879470529" longitude="-135.86974" latitude="0.8977441"/>
<marker id="1352515757" label="Tater" category="77" did="1879061257" parentZoneId="1879470529" longitude="-135.86974" latitude="0.8977441"/>
<marker id="1352515758" label="Bunch of Blackberries" category="77" did="1879061418" parentZoneId="1879470529" longitude="-135.86974" latitude="0.8977441"/>
<marker id="1352515759" label="Bunch of Blueberries" category="77" did="1879061342" parentZoneId="1879470529" longitude="-135.86974" latitude="0.8977441"/>
<marker id="1352515760" label="Ribbon Snake" category="78" did="1879078078" parentZoneId="1879470529" longitude="-135.86974" latitude="0.8977441"/>
<marker id="1352515761" label="Frog" category="78" did="1879086590" parentZoneId="1879470529" longitude="-135.86974" latitude="0.8977441"/>
<marker id="1352515762" label="Turtle" category="78" did="1879250311" parentZoneId="1879470529" longitude="-136.05992" latitude="0.6701953"/>
<marker id="1352515763" label="Indigo Plant" category="77" did="1879054949" parentZoneId="1879470529" longitude="-136.05992" latitude="0.6701953"/>
<marker id="1352515764" label="Jerboa" category="78" did="1879478483" parentZoneId="1879470529" longitude="-136.05992" latitude="0.6701953"/>
<marker id="1352515765" label="Bunch of Strawberries" category="77" did="1879061415" parentZoneId="1879470529" longitude="-136.05992" latitude="0.6701953"/>
<marker id="1352515766" label="Drop of Fine Clover Honey" category="77" did="1879061399" parentZoneId="1879470529" longitude="-136.05992" latitude="0.6701953"/>
<marker id="1352515767" label="Bunch of Raspberries" category="77" did="1879061417" parentZoneId="1879470529" longitude="-136.05992" latitude="0.6701953"/>
<marker id="1352515768" label="Tater" category="77" did="1879061257" parentZoneId="1879470529" longitude="-136.05992" latitude="0.6701953"/>
<marker id="1352515769" label="Bunch of Blackberries" category="77" did="1879061418" parentZoneId="1879470529" longitude="-136.05992" latitude="0.6701953"/>
<marker id="1352515770" label="Bunch of Blueberries" category="77" did="1879061342" parentZoneId="1879470529" longitude="-136.05992" latitude="0.6701953"/>
<marker id="1352515771" label="Ribbon Snake" category="78" did="1879078078" parentZoneId="1879470529" longitude="-136.05992" latitude="0.6701953"/>
<marker id="1352515772" label="Frog" category="78" did="1879086590" parentZoneId="1879470529" longitude="-136.05992" latitude="0.6701953"/>
<marker id="1352515773" label="Turtle" category="78" did="1879250311" parentZoneId="1879470529" longitude="-135.65894" latitude="0.65469724"/>
<marker id="1352515774" label="Indigo Plant" category="77" did="1879054949" parentZoneId="1879470529" longitude="-135.65894" latitude="0.65469724"/>
<marker id="1352515775" label="Jerboa" category="78" did="1879478483" parentZoneId="1879470529" longitude="-135.65894" latitude="0.65469724"/>
<marker id="1352515776" label="Bunch of Strawberries" category="77" did="1879061415" parentZoneId="1879470529" longitude="-135.65894" latitude="0.65469724"/>
<marker id="1352515777" label="Drop of Fine Clover Honey" category="77" did="1879061399" parentZoneId="1879470529" longitude="-135.65894" latitude="0.65469724"/>
<marker id="1352515778" label="Bunch of Raspberries" category="77" did="1879061417" parentZoneId="1879470529" longitude="-135.65894" latitude="0.65469724"/>
<marker id="1352515779" label="Tater" category="77" did="1879061257" parentZoneId="1879470529" longitude="-135.65894" latitude="0.65469724"/>
<marker id="1352515780" label="Bunch of Blackberries" category="77" did="1879061418" parentZoneId="1879470529" longitude="-135.65894" latitude="0.65469724"/>
<marker id="1352515781" label="Bunch of Blueberries" category="77" did="1879061342" parentZoneId="1879470529" longitude="-135.65894" latitude="0.65469724"/>
<marker id="1352515782" label="Ribbon Snake" category="78" did="1879078078" parentZoneId="1879470529" longitude="-135.65894" latitude="0.65469724"/>
<marker id="1352515783" label="Frog" category="78" did="1879086590" parentZoneId="1879470529" longitude="-135.65894" latitude="0.65469724"/>
<marker id="1352515784" label="Turtle" category="78" did="1879250311" parentZoneId="1879470529" longitude="-135.76718" latitude="0.8378515"/>
<marker id="1352515785" label="Indigo Plant" category="77" did="1879054949" parentZoneId="1879470529" longitude="-135.76718" latitude="0.8378515"/>
<marker id="1352515786" label="Jerboa" category="78" did="1879478483" parentZoneId="1879470529" longitude="-135.76718" latitude="0.8378515"/>
<marker id="1352515787" label="Bunch of Strawberries" category="77" did="1879061415" parentZoneId="1879470529" longitude="-135.76718" latitude="0.8378515"/>
<marker id="1352515788" label="Drop of Fine Clover Honey" category="77" did="1879061399" parentZoneId="1879470529" longitude="-135.76718" latitude="0.8378515"/>
<marker id="1352515789" label="Bunch of Raspberries" category="77" did="1879061417" parentZoneId="1879470529" longitude="-135.76718" latitude="0.8378515"/>
<marker id="1352515790" label="Tater" category="77" did="1879061257" parentZoneId="1879470529" longitude="-135.76718" latitude="0.8378515"/>
<marker id="1352515791" label="Bunch of Blackberries" category="77" did="1879061418" parentZoneId="1879470529" longitude="-135.76718" latitude="0.8378515"/>
<marker id="1352515792" label="Bunch of Blueberries" category="77" did="1879061342" parentZoneId="1879470529" longitude="-135.76718" latitude="0.8378515"/>
<marker id="1352515793" label="Ribbon Snake" category="78" did="1879078078" parentZoneId="1879470529" longitude="-135.76718" latitude="0.8378515"/>
<marker id="1352515794" label="Frog" category="78" did="1879086590" parentZoneId="1879470529" longitude="-135.76718" latitude="0.8378515"/>
<marker id="1352515795" label="Turtle" category="78" did="1879250311" parentZoneId="1879470529" longitude="-135.93648" latitude="0.94152343"/>
<marker id="1352515796" label="Indigo Plant" category="77" did="1879054949" parentZoneId="1879470529" longitude="-135.93648" latitude="0.94152343"/>
<marker id="1352515797" label="Jerboa" category="78" did="1879478483" parentZoneId="1879470529" longitude="-135.93648" latitude="0.94152343"/>
<marker id="1352515798" label="Bunch of Strawberries" category="77" did="1879061415" parentZoneId="1879470529" longitude="-135.93648" latitude="0.94152343"/>
<marker id="1352515799" label="Drop of Fine Clover Honey" category="77" did="1879061399" parentZoneId="1879470529" longitude="-135.93648" latitude="0.94152343"/>
<marker id="1352515800" label="Bunch of Raspberries" category="77" did="1879061417" parentZoneId="1879470529" longitude="-135.93648" latitude="0.94152343"/>
<marker id="1352515801" label="Tater" category="77" did="1879061257" parentZoneId="1879470529" longitude="-135.93648" latitude="0.94152343"/>
<marker id="1352515802" label="Bunch of Blackberries" category="77" did="1879061418" parentZoneId="1879470529" longitude="-135.93648" latitude="0.94152343"/>
<marker id="1352515803" label="Bunch of Blueberries" category="77" did="1879061342" parentZoneId="1879470529" longitude="-135.93648" latitude="0.94152343"/>
<marker id="1352515804" label="Ribbon Snake" category="78" did="1879078078" parentZoneId="1879470529" longitude="-135.93648" latitude="0.94152343"/>
<marker id="1352515805" label="Frog" category="78" did="1879086590" parentZoneId="1879470529" longitude="-135.93648" latitude="0.94152343"/>
<marker id="1352519682" label="Khibi Spitter" category="71" did="1879474934" parentZoneId="1879470529" longitude="-135.8166" latitude="1.6842382"/>
<marker id="1352519683" label="Khibi Stalker" category="71" did="1879474932" parentZoneId="1879470529" longitude="-135.8166" latitude="1.6842382"/>
<marker id="1352519684" label="Khibi Queen" category="71" did="1879474933" parentZoneId="1879470529" longitude="-135.8166" latitude="1.6842382"/>
<marker id="1352519700" label="Spider-web" category="73" did="1879470536" parentZoneId="1879470529" longitude="-135.78453" latitude="1.7707617"/>
<marker id="1352519701" label="Spider-web" category="73" did="1879470536" parentZoneId="1879470529" longitude="-135.67673" latitude="1.5655175"/>
<marker id="1352519702" label="Spider-web" category="73" did="1879470536" parentZoneId="1879470529" longitude="-135.96896" latitude="1.5398632"/>
<marker id="1352519703" label="Spider-web" category="73" did="1879470536" parentZoneId="1879470529" longitude="-135.70149" latitude="1.292041"/>
<marker id="1352519704" label="Spider-web" category="73" did="1879470536" parentZoneId="1879470529" longitude="-135.6458" latitude="1.9319726"/>
<marker id="1352519705" label="Spider-web" category="73" did="1879470536" parentZoneId="1879470529" longitude="-136.09338" latitude="1.8228124"/>
<marker id="1352519708" label="Maj Khibi" category="74" did="1879469836" parentZoneId="1879470529" longitude="-135.81029" latitude="1.3482813"/>
<marker id="1352519709" label="Maj Khibi" category="43" did="1879469836" parentZoneId="1879470529" longitude="-135.81029" latitude="1.7037207"/>
<marker id="1352519710" label="Maj Khibi" category="74" did="1879469836" parentZoneId="1879470529" longitude="-135.81029" latitude="1.8118359"/>
<marker id="1352519715" label="Khibi Spitter" category="71" did="1879474934" parentZoneId="1879470529" longitude="-135.60619" latitude="1.8766503"/>
<marker id="1352519716" label="Khibi Stalker" category="71" did="1879474932" parentZoneId="1879470529" longitude="-135.60619" latitude="1.8766503"/>
<marker id="1352519717" label="Khibi Queen" category="71" did="1879474933" parentZoneId="1879470529" longitude="-135.60619" latitude="1.8766503"/>
<marker id="1352519718" label="Khibi Spitter" category="71" did="1879474934" parentZoneId="1879470529" longitude="-135.7495" latitude="1.8298827"/>
<marker id="1352519719" label="Khibi Stalker" category="71" did="1879474932" parentZoneId="1879470529" longitude="-135.7495" latitude="1.8298827"/>
<marker id="1352519720" label="Khibi Queen" category="71" did="1879474933" parentZoneId="1879470529" longitude="-135.7495" latitude="1.8298827"/>
<marker id="1352519721" label="Khibi Spitter" category="71" did="1879474934" parentZoneId="1879470529" longitude="-135.87192" latitude="1.8799609"/>
<marker id="1352519722" label="Khibi Stalker" category="71" did="1879474932" parentZoneId="1879470529" longitude="-135.87192" latitude="1.8799609"/>
<marker id="1352519723" label="Khibi Queen" category="71" did="1879474933" parentZoneId="1879470529" longitude="-135.87192" latitude="1.8799609"/>
<marker id="1352519724" label="Khibi Spitter" category="71" did="1879474934" parentZoneId="1879470529" longitude="-135.82143" latitude="1.6977344"/>
<marker id="1352519725" label="Khibi Stalker" category="71" did="1879474932" parentZoneId="1879470529" longitude="-135.82143" latitude="1.6977344"/>
<marker id="1352519726" label="Khibi Queen" category="71" did="1879474933" parentZoneId="1879470529" longitude="-135.82143" latitude="1.6977344"/>
<marker id="1352519727" label="Khibi Spitter" category="71" did="1879474934" parentZoneId="1879470529" longitude="-135.76349" latitude="1.514541"/>
<marker id="1352519728" label="Khibi Stalker" category="71" did="1879474932" parentZoneId="1879470529" longitude="-135.76349" latitude="1.514541"/>
<marker id="1352519729" label="Khibi Queen" category="71" did="1879474933" parentZoneId="1879470529" longitude="-135.76349" latitude="1.514541"/>
<marker id="1352519730" label="Khibi Spitter" category="71" did="1879474934" parentZoneId="1879470529" longitude="-135.61656" latitude="1.430791"/>
<marker id="1352519731" label="Khibi Stalker" category="71" did="1879474932" parentZoneId="1879470529" longitude="-135.61656" latitude="1.430791"/>
<marker id="1352519732" label="Khibi Queen" category="71" did="1879474933" parentZoneId="1879470529" longitude="-135.61656" latitude="1.430791"/>
<marker id="1352519733" label="Khibi Spitter" category="71" did="1879474934" parentZoneId="1879470529" longitude="-135.60724" latitude="1.2105566"/>
<marker id="1352519734" label="Khibi Stalker" category="71" did="1879474932" parentZoneId="1879470529" longitude="-135.60724" latitude="1.2105566"/>
<marker id="1352519735" label="Khibi Queen" category="71" did="1879474933" parentZoneId="1879470529" longitude="-135.60724" latitude="1.2105566"/>
<marker id="1352519736" label="Khibi Spitter" category="71" did="1879474934" parentZoneId="1879470529" longitude="-135.68153" latitude="1.3090429"/>
<marker id="1352519737" label="Khibi Stalker" category="71" did="1879474932" parentZoneId="1879470529" longitude="-135.68153" latitude="1.3090429"/>
<marker id="1352519738" label="Khibi Queen" category="71" did="1879474933" parentZoneId="1879470529" longitude="-135.68153" latitude="1.3090429"/>
<marker id="1352519739" label="Khibi Spitter" category="71" did="1879474934" parentZoneId="1879470529" longitude="-135.82181" latitude="1.398584"/>
<marker id="1352519740" label="Khibi Stalker" category="71" did="1879474932" parentZoneId="1879470529" longitude="-135.82181" latitude="1.398584"/>
<marker id="1352519741" label="Khibi Queen" category="71" did="1879474933" parentZoneId="1879470529" longitude="-135.82181" latitude="1.398584"/>
<marker id="1352519742" label="Khibi Spitter" category="71" did="1879474934" parentZoneId="1879470529" longitude="-135.96732" latitude="1.5674316"/>
<marker id="1352519743" label="Khibi Stalker" category="71" did="1879474932" parentZoneId="1879470529" longitude="-135.96732" latitude="1.5674316"/>
<marker id="1352519744" label="Khibi Queen" category="71" did="1879474933" parentZoneId="1879470529" longitude="-135.96732" latitude="1.5674316"/>
<marker id="1352519745" label="Khibi Spitter" category="71" did="1879474934" parentZoneId="1879470529" longitude="-136.05232" latitude="1.7192773"/>
<marker id="1352519746" label="Khibi Stalker" category="71" did="1879474932" parentZoneId="1879470529" longitude="-136.05232" latitude="1.7192773"/>
<marker id="1352519747" label="Khibi Queen" category="71" did="1879474933" parentZoneId="1879470529" longitude="-136.05232" latitude="1.7192773"/>
<marker id="1352519748" label="Khibi Spitter" category="71" did="1879474934" parentZoneId="1879470529" longitude="-136.08203" latitude="1.8593066"/>
<marker id="1352519749" label="Khibi Stalker" category="71" did="1879474932" parentZoneId="1879470529" longitude="-136.08203" latitude="1.8593066"/>
<marker id="1352519750" label="Khibi Queen" category="71" did="1879474933" parentZoneId="1879470529" longitude="-136.08203" latitude="1.8593066"/>
<marker id="1352519751" label="Khibi Spitter" category="71" did="1879474934" parentZoneId="1879470529" longitude="-136.106" latitude="1.9807519"/>
<marker id="1352519752" label="Khibi Stalker" category="71" did="1879474932" parentZoneId="1879470529" longitude="-136.106" latitude="1.9807519"/>
<marker id="1352519753" label="Khibi Queen" category="71" did="1879474933" parentZoneId="1879470529" longitude="-136.106" latitude="1.9807519"/>
<marker id="1352519754" label="Khibi Spitter" category="71" did="1879474934" parentZoneId="1879470529" longitude="-136.18602" latitude="1.6079785"/>
<marker id="1352519755" label="Khibi Stalker" category="71" did="1879474932" parentZoneId="1879470529" longitude="-136.18602" latitude="1.6079785"/>
<marker id="1352519756" label="Khibi Queen" category="71" did="1879474933" parentZoneId="1879470529" longitude="-136.18602" latitude="1.6079785"/>
<marker id="1352523777" label="Khibi Spitter" category="71" did="1879474934" parentZoneId="1879470529" longitude="-136.21687" latitude="2.24374"/>
<marker id="1352523778" label="Khibi Stalker" category="71" did="1879474932" parentZoneId="1879470529" longitude="-136.21687" latitude="2.24374"/>
<marker id="1352523779" label="Khibi Queen" category="71" did="1879474933" parentZoneId="1879470529" longitude="-136.21687" latitude="2.24374"/>
<marker id="1352523784" label="Spider-web" category="73" did="1879470536" parentZoneId="1879470529" longitude="-136.05225" latitude="2.0694628"/>
<marker id="1352523785" label="Spider-web" category="73" did="1879470536" parentZoneId="1879470529" longitude="-135.80933" latitude="2.0782127"/>
<marker id="1352523789" label="Maj Khibi" category="74" did="1879469836" parentZoneId="1879470529" longitude="-136.31467" latitude="2.2930274"/>
<marker id="1352523790" label="Khibi Spitter" category="71" did="1879474934" parentZoneId="1879470529" longitude="-136.37636" latitude="2.3645701"/>
<marker id="1352523791" label="Khibi Stalker" category="71" did="1879474932" parentZoneId="1879470529" longitude="-136.37636" latitude="2.3645701"/>
<marker id="1352523792" label="Khibi Queen" category="71" did="1879474933" parentZoneId="1879470529" longitude="-136.37636" latitude="2.3645701"/>
<marker id="1352523793" label="Khibi Spitter" category="71" did="1879474934" parentZoneId="1879470529" longitude="-136.26167" latitude="2.2601562"/>
<marker id="1352523794" label="Khibi Stalker" category="71" did="1879474932" parentZoneId="1879470529" longitude="-136.26167" latitude="2.2601562"/>
<marker id="1352523795" label="Khibi Queen" category="71" did="1879474933" parentZoneId="1879470529" longitude="-136.26167" latitude="2.2601562"/>
<marker id="1352523796" label="Khibi Spitter" category="71" did="1879474934" parentZoneId="1879470529" longitude="-136.14711" latitude="2.1156445"/>
<marker id="1352523797" label="Khibi Stalker" category="71" did="1879474932" parentZoneId="1879470529" longitude="-136.14711" latitude="2.1156445"/>
<marker id="1352523798" label="Khibi Queen" category="71" did="1879474933" parentZoneId="1879470529" longitude="-136.14711" latitude="2.1156445"/>
<marker id="1352523799" label="Khibi Spitter" category="71" did="1879474934" parentZoneId="1879470529" longitude="-136.00223" latitude="2.0701854"/>
<marker id="1352523800" label="Khibi Stalker" category="71" did="1879474932" parentZoneId="1879470529" longitude="-136.00223" latitude="2.0701854"/>
<marker id="1352523801" label="Khibi Queen" category="71" did="1879474933" parentZoneId="1879470529" longitude="-136.00223" latitude="2.0701854"/>
<marker id="1352523802" label="Khibi Spitter" category="71" did="1879474934" parentZoneId="1879470529" longitude="-135.84392" latitude="2.0924218"/>
<marker id="1352523803" label="Khibi Stalker" category="71" did="1879474932" parentZoneId="1879470529" longitude="-135.84392" latitude="2.0924218"/>
<marker id="1352523804" label="Khibi Queen" category="71" did="1879474933" parentZoneId="1879470529" longitude="-135.84392" latitude="2.0924218"/>
<marker id="1352523805" label="Khibi Spitter" category="71" did="1879474934" parentZoneId="1879470529" longitude="-135.68275" latitude="2.1268554"/>
<marker id="1352523806" label="Khibi Stalker" category="71" did="1879474932" parentZoneId="1879470529" longitude="-135.68275" latitude="2.1268554"/>
<marker id="1352523807" label="Khibi Queen" category="71" did="1879474933" parentZoneId="1879470529" longitude="-135.68275" latitude="2.1268554"/>
<marker id="1352523808" label="Khibi Spitter" category="71" did="1879474934" parentZoneId="1879470529" longitude="-135.61694" latitude="2.021621"/>
<marker id="1352523809" label="Khibi Stalker" category="71" did="1879474932" parentZoneId="1879470529" longitude="-135.61694" latitude="2.021621"/>
<marker id="1352523810" label="Khibi Queen" category="71" did="1879474933" parentZoneId="1879470529" longitude="-135.61694" latitude="2.021621"/>
<marker id="1352523811" label="Khibi Spitter" category="71" did="1879474934" parentZoneId="1879470529" longitude="-135.7442" latitude="2.0149512"/>
<marker id="1352523812" label="Khibi Stalker" category="71" did="1879474932" parentZoneId="1879470529" longitude="-135.7442" latitude="2.0149512"/>
<marker id="1352523813" label="Khibi Queen" category="71" did="1879474933" parentZoneId="1879470529" longitude="-135.7442" latitude="2.0149512"/>
<marker id="1352527873" label="Wild Boar" category="71" did="1879475086" parentZoneId="1879470529" longitude="-135.91856" latitude="3.340293"/>
<marker id="1352527874" label="Stone-lizard" category="71" did="1879475087" parentZoneId="1879470529" longitude="-135.91856" latitude="3.340293"/>
<marker id="1352527875" label="Jeb Khâtel Cliff-darter" category="71" did="1879475102" parentZoneId="1879470529" longitude="-135.91856" latitude="3.340293"/>
<marker id="1352527876" label="Jeb Khâtel Gem-crawler" category="71" did="1879475100" parentZoneId="1879470529" longitude="-135.91856" latitude="3.340293"/>
<marker id="1352527877" label="Ghax-hophra" category="74" did="1879469838" parentZoneId="1879470529" longitude="-135.62842" latitude="3.586123"/>
<marker id="1352527880" label="Turtle" category="78" did="1879250311" parentZoneId="1879470529" longitude="-135.69728" latitude="3.0123632"/>
<marker id="1352527881" label="Indigo Plant" category="77" did="1879054949" parentZoneId="1879470529" longitude="-135.69728" latitude="3.0123632"/>
<marker id="1352527882" label="Jerboa" category="78" did="1879478483" parentZoneId="1879470529" longitude="-135.69728" latitude="3.0123632"/>
<marker id="1352527883" label="Bunch of Strawberries" category="77" did="1879061415" parentZoneId="1879470529" longitude="-135.69728" latitude="3.0123632"/>
<marker id="1352527884" label="Drop of Fine Clover Honey" category="77" did="1879061399" parentZoneId="1879470529" longitude="-135.69728" latitude="3.0123632"/>
<marker id="1352527885" label="Bunch of Raspberries" category="77" did="1879061417" parentZoneId="1879470529" longitude="-135.69728" latitude="3.0123632"/>
<marker id="1352527886" label="Tater" category="77" did="1879061257" parentZoneId="1879470529" longitude="-135.69728" latitude="3.0123632"/>
<marker id="1352527887" label="Bunch of Blackberries" category="77" did="1879061418" parentZoneId="1879470529" longitude="-135.69728" latitude="3.0123632"/>
<marker id="1352527888" label="Bunch of Blueberries" category="77" did="1879061342" parentZoneId="1879470529" longitude="-135.69728" latitude="3.0123632"/>
<marker id="1352527889" label="Ribbon Snake" category="78" did="1879078078" parentZoneId="1879470529" longitude="-135.69728" latitude="3.0123632"/>
<marker id="1352527890" label="Frog" category="78" did="1879086590" parentZoneId="1879470529" longitude="-135.69728" latitude="3.0123632"/>
<marker id="1352527891" label="Turtle" category="78" did="1879250311" parentZoneId="1879470529" longitude="-135.78883" latitude="3.173242"/>
<marker id="1352527892" label="Indigo Plant" category="77" did="1879054949" parentZoneId="1879470529" longitude="-135.78883" latitude="3.173242"/>
<marker id="1352527893" label="Jerboa" category="78" did="1879478483" parentZoneId="1879470529" longitude="-135.78883" latitude="3.173242"/>
<marker id="1352527894" label="Bunch of Strawberries" category="77" did="1879061415" parentZoneId="1879470529" longitude="-135.78883" latitude="3.173242"/>
<marker id="1352527895" label="Drop of Fine Clover Honey" category="77" did="1879061399" parentZoneId="1879470529" longitude="-135.78883" latitude="3.173242"/>
<marker id="1352527896" label="Bunch of Raspberries" category="77" did="1879061417" parentZoneId="1879470529" longitude="-135.78883" latitude="3.173242"/>
<marker id="1352527897" label="Tater" category="77" did="1879061257" parentZoneId="1879470529" longitude="-135.78883" latitude="3.173242"/>
<marker id="1352527898" label="Bunch of Blackberries" category="77" did="1879061418" parentZoneId="1879470529" longitude="-135.78883" latitude="3.173242"/>
<marker id="1352527899" label="Bunch of Blueberries" category="77" did="1879061342" parentZoneId="1879470529" longitude="-135.78883" latitude="3.173242"/>
<marker id="1352527900" label="Ribbon Snake" category="78" did="1879078078" parentZoneId="1879470529" longitude="-135.78883" latitude="3.173242"/>
<marker id="1352527901" label="Frog" category="78" did="1879086590" parentZoneId="1879470529" longitude="-135.78883" latitude="3.173242"/>
<marker id="1352527902" label="Turtle" category="78" did="1879250311" parentZoneId="1879470529" longitude="-135.66281" latitude="3.2030175"/>
<marker id="1352527903" label="Indigo Plant" category="77" did="1879054949" parentZoneId="1879470529" longitude="-135.66281" latitude="3.2030175"/>
<marker id="1352527904" label="Jerboa" category="78" did="1879478483" parentZoneId="1879470529" longitude="-135.66281" latitude="3.2030175"/>
<marker id="1352527905" label="Bunch of Strawberries" category="77" did="1879061415" parentZoneId="1879470529" longitude="-135.66281" latitude="3.2030175"/>
<marker id="1352527906" label="Drop of Fine Clover Honey" category="77" did="1879061399" parentZoneId="1879470529" longitude="-135.66281" latitude="3.2030175"/>
<marker id="1352527907" label="Bunch of Raspberries" category="77" did="1879061417" parentZoneId="1879470529" longitude="-135.66281" latitude="3.2030175"/>
<marker id="1352527908" label="Tater" category="77" did="1879061257" parentZoneId="1879470529" longitude="-135.66281" latitude="3.2030175"/>
<marker id="1352527909" label="Bunch of Blackberries" category="77" did="1879061418" parentZoneId="1879470529" longitude="-135.66281" latitude="3.2030175"/>
<marker id="1352527910" label="Bunch of Blueberries" category="77" did="1879061342" parentZoneId="1879470529" longitude="-135.66281" latitude="3.2030175"/>
<marker id="1352527911" label="Ribbon Snake" category="78" did="1879078078" parentZoneId="1879470529" longitude="-135.66281" latitude="3.2030175"/>
<marker id="1352527912" label="Frog" category="78" did="1879086590" parentZoneId="1879470529" longitude="-135.66281" latitude="3.2030175"/>
<marker id="1352527913" label="Turtle" category="78" did="1879250311" parentZoneId="1879470529" longitude="-135.7579" latitude="3.3408594"/>
<marker id="1352527914" label="Indigo Plant" category="77" did="1879054949" parentZoneId="1879470529" longitude="-135.7579" latitude="3.3408594"/>
<marker id="1352527915" label="Jerboa" category="78" did="1879478483" parentZoneId="1879470529" longitude="-135.7579" latitude="3.3408594"/>
<marker id="1352527916" label="Bunch of Strawberries" category="77" did="1879061415" parentZoneId="1879470529" longitude="-135.7579" latitude="3.3408594"/>
<marker id="1352527917" label="Drop of Fine Clover Honey" category="77" did="1879061399" parentZoneId="1879470529" longitude="-135.7579" latitude="3.3408594"/>
<marker id="1352527918" label="Bunch of Raspberries" category="77" did="1879061417" parentZoneId="1879470529" longitude="-135.7579" latitude="3.3408594"/>
<marker id="1352527919" label="Tater" category="77" did="1879061257" parentZoneId="1879470529" longitude="-135.7579" latitude="3.3408594"/>
<marker id="1352527920" label="Bunch of Blackberries" category="77" did="1879061418" parentZoneId="1879470529" longitude="-135.7579" latitude="3.3408594"/>
<marker id="1352527921" label="Bunch of Blueberries" category="77" did="1879061342" parentZoneId="1879470529" longitude="-135.7579" latitude="3.3408594"/>
<marker id="1352527922" label="Ribbon Snake" category="78" did="1879078078" parentZoneId="1879470529" longitude="-135.7579" latitude="3.3408594"/>
<marker id="1352527923" label="Frog" category="78" did="1879086590" parentZoneId="1879470529" longitude="-135.7579" latitude="3.3408594"/>
<marker id="1352527924" label="Turtle" category="78" did="1879250311" parentZoneId="1879470529" longitude="-135.88121" latitude="3.2954588"/>
<marker id="1352527925" label="Indigo Plant" category="77" did="1879054949" parentZoneId="1879470529" longitude="-135.88121" latitude="3.2954588"/>
<marker id="1352527926" label="Jerboa" category="78" did="1879478483" parentZoneId="1879470529" longitude="-135.88121" latitude="3.2954588"/>
<marker id="1352527927" label="Bunch of Strawberries" category="77" did="1879061415" parentZoneId="1879470529" longitude="-135.88121" latitude="3.2954588"/>
<marker id="1352527928" label="Drop of Fine Clover Honey" category="77" did="1879061399" parentZoneId="1879470529" longitude="-135.88121" latitude="3.2954588"/>
<marker id="1352527929" label="Bunch of Raspberries" category="77" did="1879061417" parentZoneId="1879470529" longitude="-135.88121" latitude="3.2954588"/>
<marker id="1352527930" label="Tater" category="77" did="1879061257" parentZoneId="1879470529" longitude="-135.88121" latitude="3.2954588"/>
<marker id="1352527931" label="Bunch of Blackberries" category="77" did="1879061418" parentZoneId="1879470529" longitude="-135.88121" latitude="3.2954588"/>
<marker id="1352527932" label="Bunch of Blueberries" category="77" did="1879061342" parentZoneId="1879470529" longitude="-135.88121" latitude="3.2954588"/>
<marker id="1352527933" label="Ribbon Snake" category="78" did="1879078078" parentZoneId="1879470529" longitude="-135.88121" latitude="3.2954588"/>
<marker id="1352527934" label="Frog" category="78" did="1879086590" parentZoneId="1879470529" longitude="-135.88121" latitude="3.2954588"/>
<marker id="1352527935" label="Turtle" category="78" did="1879250311" parentZoneId="1879470529" longitude="-135.88054" latitude="3.4394922"/>
<marker id="1352527936" label="Indigo Plant" category="77" did="1879054949" parentZoneId="1879470529" longitude="-135.88054" latitude="3.4394922"/>
<marker id="1352527937" label="Jerboa" category="78" did="1879478483" parentZoneId="1879470529" longitude="-135.88054" latitude="3.4394922"/>
<marker id="1352527938" label="Bunch of Strawberries" category="77" did="1879061415" parentZoneId="1879470529" longitude="-135.88054" latitude="3.4394922"/>
<marker id="1352527939" label="Drop of Fine Clover Honey" category="77" did="1879061399" parentZoneId="1879470529" longitude="-135.88054" latitude="3.4394922"/>
<marker id="1352527940" label="Bunch of Raspberries" category="77" did="1879061417" parentZoneId="1879470529" longitude="-135.88054" latitude="3.4394922"/>
<marker id="1352527941" label="Tater" category="77" did="1879061257" parentZoneId="1879470529" longitude="-135.88054" latitude="3.4394922"/>
<marker id="1352527942" label="Bunch of Blackberries" category="77" did="1879061418" parentZoneId="1879470529" longitude="-135.88054" latitude="3.4394922"/>
