<?xml version="1.0" encoding="UTF-8"?><markers>
<marker id="1332408320" label="Mailbox" category="34" did="1879063475" parentZoneId="1879473821" longitude="53.210136" latitude="-35.60256"/>
<marker id="1332408321" label="Auctioneer" category="53" did="1879313209" parentZoneId="1879473821" longitude="53.218357" latitude="-35.624687"/>
<marker id="1332408322" label="Vault-keeper" category="40" did="1879313187" parentZoneId="1879473821" longitude="53.194862" latitude="-35.56079"/>
<marker id="1332408323" label="Door" category="100" did="1879063326" parentZoneId="1879473821" longitude="53.18662" latitude="-35.650173"/>
<marker id="1332531200" label="Healer" category="38" did="1879306226" parentZoneId="1879480640" longitude="54.792618" latitude="-37.179363"/>
<marker id="1332531203" label="Door" category="100" did="1879312568" parentZoneId="1879480640" longitude="54.784317" latitude="-37.2382"/>
<marker id="1332531204" label="Second Age Amethyst" category="73" did="1879317247" parentZoneId="1879480640" longitude="54.778767" latitude="-37.17877"/>
<marker id="1332539396" label="Mailbox" category="34" did="1879314516" parentZoneId="1879475536" longitude="54.77828" latitude="-35.604454"/>
<marker id="1332539397" label="Bonnie Milkweed&#10;Notary" category="38" did="1879078808" parentZoneId="1879475536" longitude="54.824043" latitude="-35.550156"/>
<marker id="1332539398" label="Vault-keeper" category="40" did="1879313187" parentZoneId="1879475536" longitude="54.779022" latitude="-35.47861"/>
<marker id="1332539399" label="Auctioneer" category="53" did="1879313200" parentZoneId="1879475536" longitude="54.821404" latitude="-35.47861"/>
<marker id="1332539400" label="Door" category="100" did="1879227954" parentZoneId="1879475536" longitude="54.8" latitude="-35.64591"/>
</markers>
